var banhmilocations =
{
   "type": "FeatureCollection",
   "name": "banhmilocations",
   "features": [
  {
    "type": "Feature",
    "geometry": {
       "type": "Point",
       "coordinates":  [ 144.9663561,-37.8168682 ]
    },
    "properties": {
    "name":"Heartbaker Bun Mee",
    "site":"",
    "full_address":"3/241 Flinders Ln, Melbourne VIC 3000",
    "street":"3/241 Flinders Ln",
    "city":"Melbourne",
    "postal_code":3000,
    "state":"Victoria",
    "country":"Australia",
    "country_code":"AU"
    }
  },
  {
    "type": "Feature",
    "geometry": {
       "type": "Point",
       "coordinates":  [ 144.9631448,-37.8156109 ]
    },
    "properties": {
    "name":"Oh! Banh Mi",
    "site":"",
    "full_address":"34 Equitable Pl, Melbourne VIC 3000",
    "street":"34 Equitable Pl",
    "city":"Melbourne",
    "postal_code":3000,
    "state":"Victoria",
    "country":"Australia",
    "country_code":"AU"
    }
  },
  {
    "type": "Feature",
    "geometry": {
       "type": "Point",
       "coordinates":  [ 144.9451751,-37.8212394 ]
    },
    "properties": {
    "name":"Pho & bakery cafe",
    "site":"",
    "full_address":"838 Collins St, Docklands VIC 3008",
    "street":"838 Collins St",
    "city":"Docklands",
    "postal_code":3008,
    "state":"Victoria",
    "country":"Australia",
    "country_code":"AU"
    }
  },
  {
    "type": "Feature",
    "geometry": {
       "type": "Point",
       "coordinates":  [ 144.9602245,-37.8171801 ]
    },
    "properties": {
    "name":"N. Lee Bakery Cafe",
    "site":"",
    "full_address":"422-428 Collins St, Melbourne VIC 3000",
    "street":"422-428 Collins St",
    "city":"Melbourne",
    "postal_code":3000,
    "state":"Victoria",
    "country":"Australia",
    "country_code":"AU"
    }
  },
  {
    "type": "Feature",
    "geometry": {
       "type": "Point",
       "coordinates":  [ 144.9665601,-37.8130101 ]
    },
    "properties": {
    "name":"VB Rolls",
    "site":"https://www.facebook.com/vbrolls/",
    "full_address":"222 Bourke St, Melbourne VIC 3000",
    "street":"222 Bourke St",
    "city":"Melbourne",
    "postal_code":3000,
    "state":"Victoria",
    "country":"Australia",
    "country_code":"AU"
    }
  },
  {
    "type": "Feature",
    "geometry": {
       "type": "Point",
       "coordinates":  [ 144.9715301,-37.8129669 ]
    },
    "properties": {
    "name":"N Lee Bakery Cafe",
    "site":"",
    "full_address":"61 Little Collins St, Melbourne VIC 3000",
    "street":"61 Little Collins St",
    "city":"Melbourne",
    "postal_code":3000,
    "state":"Victoria",
    "country":"Australia",
    "country_code":"AU"
    }
  },
  {
    "type": "Feature",
    "geometry": {
       "type": "Point",
       "coordinates":  [ 144.960452,-37.816279 ]
    },
    "properties": {
    "name":"Little Brother",
    "site":"http://littlebrothereats.com/",
    "full_address":"429 Little Collins St, Melbourne VIC 3000",
    "street":"429 Little Collins St",
    "city":"Melbourne",
    "postal_code":3000,
    "state":"Victoria",
    "country":"Australia",
    "country_code":"AU"
    }
  },
  {
    "type": "Feature",
    "geometry": {
       "type": "Point",
       "coordinates":  [ 144.9637604,-37.8123741 ]
    },
    "properties": {
    "name":"Pho Nom Emporium",
    "site":"http://www.phonom.com.au/",
    "full_address":"287 Lonsdale St, Melbourne VIC 3000",
    "street":"287 Lonsdale St",
    "city":"Melbourne",
    "postal_code":3000,
    "state":"Victoria",
    "country":"Australia",
    "country_code":"AU"
    }
  },
  {
    "type": "Feature",
    "geometry": {
       "type": "Point",
       "coordinates":  [ 144.958164,-37.804439 ]
    },
    "properties": {
    "name":"I Wrap Cafe",
    "site":"https://www.facebook.com/iwrapcafe/",
    "full_address":"595 Elizabeth St, Melbourne VIC 3000",
    "street":"595 Elizabeth St",
    "city":"Melbourne",
    "postal_code":3000,
    "state":"Victoria",
    "country":"Australia",
    "country_code":"AU"
    }
  },
  {
    "type": "Feature",
    "geometry": {
       "type": "Point",
       "coordinates":  [ 144.9608214,-37.8129421 ]
    },
    "properties": {
    "name":"Hawker Boys",
    "site":"http://hawkerboys.com.au/",
    "full_address":"85 Hardware Ln, Melbourne VIC 3000",
    "street":"85 Hardware Ln",
    "city":"Melbourne",
    "postal_code":3000,
    "state":"Victoria",
    "country":"Australia",
    "country_code":"AU"
    }
  },
  {
    "type": "Feature",
    "geometry": {
       "type": "Point",
       "coordinates":  [ 144.963551,-37.811511 ]
    },
    "properties": {
    "name":"Roll'd Melbourne Central",
    "site":"https://rolld.com.au/location/melbourne-central-station/",
    "full_address":"Tenancy 258, Level 2, Melbourne Central La Trobe and, Swanston St, Melbourne VIC 3000",
    "street":"Tenancy 258, Level 2, Melbourne Central La Trobe and, Swanston St",
    "city":"Melbourne",
    "postal_code":3000,
    "state":"VIC",
    "country":"Australia",
    "country_code":"AU"
    }
  },
  {
    "type": "Feature",
    "geometry": {
       "type": "Point",
       "coordinates":  [ 144.9839206,-37.8024569 ]
    },
    "properties": {
    "name":"N.Lee Bakery",
    "site":"",
    "full_address":"220 Smith St, Collingwood VIC 3066",
    "street":"220 Smith St",
    "city":"Collingwood",
    "postal_code":3066,
    "state":"Victoria",
    "country":"Australia",
    "country_code":"AU"
    }
  },
  {
    "type": "Feature",
    "geometry": {
       "type": "Point",
       "coordinates":  [ 144.9559093,-37.8190732 ]
    },
    "properties": {
    "name":"Pho Nom Collins St",
    "site":"http://phonom.com.au/",
    "full_address":"T4/567 Collins St, Melbourne VIC 3000",
    "street":"T4/567 Collins St",
    "city":"Melbourne",
    "postal_code":3000,
    "state":"Victoria",
    "country":"Australia",
    "country_code":"AU"
    }
  },
  {
    "type": "Feature",
    "geometry": {
       "type": "Point",
       "coordinates":  [ 144.9568034,-37.8148065 ]
    },
    "properties": {
    "name":"Banoi CBD",
    "site":"http://www.banoi.com.au/",
    "full_address":"530 Little Bourke St, Melbourne VIC 3000",
    "street":"530 Little Bourke St",
    "city":"Melbourne",
    "postal_code":3000,
    "state":"Victoria",
    "country":"Australia",
    "country_code":"AU"
    }
  },
  {
    "type": "Feature",
    "geometry": {
       "type": "Point",
       "coordinates":  [ 144.9542216,-37.8126242 ]
    },
    "properties": {
    "name":"Lyns Kitchen",
    "site":"http://www.vnwrapnroll.com.au/",
    "full_address":"324 King St, Melbourne VIC 3000",
    "street":"324 King St",
    "city":"Melbourne",
    "postal_code":3000,
    "state":"Victoria",
    "country":"Australia",
    "country_code":"AU"
    }
  },
  {
    "type": "Feature",
    "geometry": {
       "type": "Point",
       "coordinates":  [ 144.9810601,-37.8526173 ]
    },
    "properties": {
    "name":"The Little Pho Cafe",
    "site":"http://www.thelittlephocafe.com.au/",
    "full_address":"1/618 St Kilda Rd, Melbourne VIC 3004",
    "street":"1/618 St Kilda Rd",
    "city":"Melbourne",
    "postal_code":3004,
    "state":"Victoria",
    "country":"Australia",
    "country_code":"AU"
    }
  },
  {
    "type": "Feature",
    "geometry": {
       "type": "Point",
       "coordinates":  [ 144.9931638,-37.8536742 ]
    },
    "properties": {
    "name":"Nguyen's Hot Bread (Vic)",
    "site":"",
    "full_address":"128 Chapel St, Windsor VIC 3181",
    "street":"128 Chapel St",
    "city":"Windsor",
    "postal_code":3181,
    "state":"Victoria",
    "country":"Australia",
    "country_code":"AU"
    }
  },
  {
    "type": "Feature",
    "geometry": {
       "type": "Point",
       "coordinates":  [ 144.9575872,-37.8151891 ]
    },
    "properties": {
    "name":"Roll'd CBW Goldsborough Lane",
    "site":"https://rolld.com.au/location/cbw-goldsborough-lane/?utm_source=google&utm_medium=organic&utm_campaign=Google%20My%20Business&utm_content=Rolld%20CBW%20Goldsborough%20Lane",
    "full_address":"Shop TG10, Goldsborough Lane, 181 William St, Melbourne VIC 3000",
    "street":"Shop TG10, Goldsborough Lane, 181 William St",
    "city":"Melbourne",
    "postal_code":3000,
    "state":"VIC",
    "country":"Australia",
    "country_code":"AU"
    }
  },
  {
    "type": "Feature",
    "geometry": {
       "type": "Point",
       "coordinates":  [ 144.959641,-37.831686 ]
    },
    "properties": {
    "name":"N Lee Bakery Cafe",
    "site":"",
    "full_address":"234 Clarendon St, South Melbourne VIC 3205",
    "street":"234 Clarendon St",
    "city":"South Melbourne",
    "postal_code":3205,
    "state":"Victoria",
    "country":"Australia",
    "country_code":"AU"
    }
  },
  {
    "type": "Feature",
    "geometry": {
       "type": "Point",
       "coordinates":  [ 144.9784871,-37.8481272 ]
    },
    "properties": {
    "name":"Trang Bakery & Cafe",
    "site":"https://www.facebook.com/trangbakery/",
    "full_address":"unit 1/58 Queens Rd, Melbourne VIC 3004",
    "street":"unit 1/58 Queens Rd",
    "city":"Melbourne",
    "postal_code":3004,
    "state":"Victoria",
    "country":"Australia",
    "country_code":"AU"
    }
  },
  {
    "type": "Feature",
    "geometry": {
       "type": "Point",
       "coordinates":  [ 144.97732,-37.803864 ]
    },
    "properties": {
    "name":"VH Vietnamese Hot Bread",
    "site":"",
    "full_address":"121 Brunswick St, Fitzroy VIC 3065",
    "street":"121 Brunswick St",
    "city":"Fitzroy",
    "postal_code":3065,
    "state":"Victoria",
    "country":"Australia",
    "country_code":"AU"
    }
  },
  {
    "type": "Feature",
    "geometry": {
       "type": "Point",
       "coordinates":  [ 144.9879844,-37.8090883 ]
    },
    "properties": {
    "name":"Banh Mi Collingwood",
    "site":"",
    "full_address":"141 Victoria Parade, Collingwood VIC 3066",
    "street":"141 Victoria Parade",
    "city":"Collingwood",
    "postal_code":3066,
    "state":"Victoria",
    "country":"Australia",
    "country_code":"AU"
    }
  },
  {
    "type": "Feature",
    "geometry": {
       "type": "Point",
       "coordinates":  [ 144.9498474,-37.8208934 ]
    },
    "properties": {
    "name":"Bon Bon Boy - Collins Square Express",
    "site":"http://www.bonbonboy.com.au/",
    "full_address":"Collins Square, 727 Collins St, Docklands VIC 3008",
    "street":"Collins Square, 727 Collins St",
    "city":"Docklands",
    "postal_code":3008,
    "state":"VIC",
    "country":"Australia",
    "country_code":"AU"
    }
  },
  {
    "type": "Feature",
    "geometry": {
       "type": "Point",
       "coordinates":  [ 144.9857116,-37.8043814 ]
    },
    "properties": {
    "name":"Amie Bakery Cafe",
    "site":"http://www.amiebakerycafe.com.au/",
    "full_address":"Suite 109/136/134 Cambridge St, Collingwood VIC 3066",
    "street":"Suite 109/136/134 Cambridge St",
    "city":"Collingwood",
    "postal_code":3066,
    "state":"Victoria",
    "country":"Australia",
    "country_code":"AU"
    }
  },
  {
    "type": "Feature",
    "geometry": {
       "type": "Point",
       "coordinates":  [ 144.9529675,-37.8158688 ]
    },
    "properties": {
    "name":"Bon Bon Boy @ Upper Westside",
    "site":"http://www.bonbonboy.com.au/",
    "full_address":"656 Little Bourke St, Melbourne VIC 3000",
    "street":"656 Little Bourke St",
    "city":"Melbourne",
    "postal_code":3000,
    "state":"Victoria",
    "country":"Australia",
    "country_code":"AU"
    }
  },
  {
    "type": "Feature",
    "geometry": {
       "type": "Point",
       "coordinates":  [ 144.9715007,-37.8098111 ]
    },
    "properties": {
    "name":"Master Roll Vietnam (Lonsdale Street)",
    "site":"http://www.masterroll.com.au/",
    "full_address":"Ground Floor, 19/21 Lonsdale St, Melbourne VIC 3000",
    "street":"Ground Floor, 19/21 Lonsdale St",
    "city":"Melbourne",
    "postal_code":3000,
    "state":"Victoria",
    "country":"Australia",
    "country_code":"AU"
    }
  },
  {
    "type": "Feature",
    "geometry": {
       "type": "Point",
       "coordinates":  [ 144.9615265,-37.8341768 ]
    },
    "properties": {
    "name":"VN Wrap & Roll - South Melbourne",
    "site":"http://order.vnwrapnroll.com.au/",
    "full_address":"1/187 Bank St, South Melbourne VIC 3205",
    "street":"1/187 Bank St",
    "city":"South Melbourne",
    "postal_code":3205,
    "state":"Victoria",
    "country":"Australia",
    "country_code":"AU"
    }
  },
  {
    "type": "Feature",
    "geometry": {
       "type": "Point",
       "coordinates":  [ 145.0060023,-37.8194989 ]
    },
    "properties": {
    "name":"Banh Mi Hoi An",
    "site":"",
    "full_address":"434 Bridge Rd, Richmond VIC 3121",
    "street":"434 Bridge Rd",
    "city":"Richmond",
    "postal_code":3121,
    "state":"Victoria",
    "country":"Australia",
    "country_code":"AU"
    }
  },
  {
    "type": "Feature",
    "geometry": {
       "type": "Point",
       "coordinates":  [ 144.9926075,-37.8389918 ]
    },
    "properties": {
    "name":"Master Roll Vietnam (South Yarra)",
    "site":"http://masterroll.com.au/",
    "full_address":"169 Toorak Rd, South Yarra VIC 3141",
    "street":"169 Toorak Rd",
    "city":"South Yarra",
    "postal_code":3141,
    "state":"Victoria",
    "country":"Australia",
    "country_code":"AU"
    }
  },
  {
    "type": "Feature",
    "geometry": {
       "type": "Point",
       "coordinates":  [ 145.0025481,-37.8191032 ]
    },
    "properties": {
    "name":"Ca Com Banh Mi Bar",
    "site":"https://www.instagram.com/cacom.banhmi.bar/",
    "full_address":"336 Bridge Rd, Richmond VIC 3121",
    "street":"336 Bridge Rd",
    "city":"Richmond",
    "postal_code":3121,
    "state":"Victoria",
    "country":"Australia",
    "country_code":"AU"
    }
  },
  {
    "type": "Feature",
    "geometry": {
       "type": "Point",
       "coordinates":  [ 144.9697451,-37.8127532 ]
    },
    "properties": {
    "name":"Roll'd Southern Cross Lane",
    "site":"https://rolld.com.au/location/rolld-southern-cross-lane-to/",
    "full_address":"w4/111 Bourke St, Melbourne VIC 3000",
    "street":"w4/111 Bourke St",
    "city":"Melbourne",
    "postal_code":3000,
    "state":"Victoria",
    "country":"Australia",
    "country_code":"AU"
    }
  },
  {
    "type": "Feature",
    "geometry": {
       "type": "Point",
       "coordinates":  [ 144.9980429,-37.8105854 ]
    },
    "properties": {
    "name":"Phuoc Thanh Bakery Richmond",
    "site":"https://www.phuocthanh.com.au/",
    "full_address":"206 Victoria St, Richmond VIC 3121",
    "street":"206 Victoria St",
    "city":"Richmond",
    "postal_code":3121,
    "state":"Victoria",
    "country":"Australia",
    "country_code":"AU"
    }
  },
  {
    "type": "Feature",
    "geometry": {
       "type": "Point",
       "coordinates":  [ 144.9733303,-37.8136473 ]
    },
    "properties": {
    "name":"Uncle Collins Street",
    "site":"http://www.unclerestaurants.com.au/",
    "full_address":"Level 1/15 Collins St, Melbourne VIC 3000",
    "street":"Level 1/15 Collins St",
    "city":"Melbourne",
    "postal_code":3000,
    "state":"Victoria",
    "country":"Australia",
    "country_code":"AU"
    }
  },
  {
    "type": "Feature",
    "geometry": {
       "type": "Point",
       "coordinates":  [ 144.9667704,-37.8199948 ]
    },
    "properties": {
    "name":"Roll'd Southgate",
    "site":"https://rolld.com.au/location/southgate/",
    "full_address":"Southgate Melbourne, Tenancy G2/3 Southgate Ave, Southbank VIC 3006",
    "street":"Southgate Melbourne, Tenancy G2/3 Southgate Ave",
    "city":"Southbank",
    "postal_code":3006,
    "state":"VIC",
    "country":"Australia",
    "country_code":"AU"
    }
  },
  {
    "type": "Feature",
    "geometry": {
       "type": "Point",
       "coordinates":  [ 144.9698551,-37.8096649 ]
    },
    "properties": {
    "name":"Roll Mi",
    "site":"",
    "full_address":"242 Exhibition St, Melbourne VIC 3000",
    "street":"242 Exhibition St",
    "city":"Melbourne",
    "postal_code":3000,
    "state":"Victoria",
    "country":"Australia",
    "country_code":"AU"
    }
  },
  {
    "type": "Feature",
    "geometry": {
       "type": "Point",
       "coordinates":  [ 144.9623532,-37.8109797 ]
    },
    "properties": {
    "name":"Pho Nom Ella Melbourne Central",
    "site":"http://www.phonom.com.au/",
    "full_address":"Cnr Latrobe and, Elizabeth St, Melbourne VIC 3000",
    "street":"Cnr Latrobe and, Elizabeth St",
    "city":"Melbourne",
    "postal_code":3000,
    "state":"VIC",
    "country":"Australia",
    "country_code":"AU"
    }
  },
  {
    "type": "Feature",
    "geometry": {
       "type": "Point",
       "coordinates":  [ 144.9727141,-37.8142453 ]
    },
    "properties": {
    "name":"Roll'd Collins Place",
    "site":"https://rolld.com.au/location/collins-place/?utm_source=google&utm_medium=organic&utm_campaign=Google%20My%20Business&utm_content=Rolld%20Collins%20Place%20-%20Melbourne",
    "full_address":"50/45 Collins St, Melbourne VIC 3000",
    "street":"50/45 Collins St",
    "city":"Melbourne",
    "postal_code":3000,
    "state":"Victoria",
    "country":"Australia",
    "country_code":"AU"
    }
  },
  {
    "type": "Feature",
    "geometry": {
       "type": "Point",
       "coordinates":  [ 144.9630864,-37.8175264 ]
    },
    "properties": {
    "name":"Roll'd 357 Collins",
    "site":"https://rolld.com.au/location/357-collins-st/",
    "full_address":"Shop 6/357 Collins St, Melbourne VIC 3000",
    "street":"Shop 6/357 Collins St",
    "city":"Melbourne",
    "postal_code":3000,
    "state":"Victoria",
    "country":"Australia",
    "country_code":"AU"
    }
  },
  {
    "type": "Feature",
    "geometry": {
       "type": "Point",
       "coordinates":  [ 144.9802883,-37.8514729 ]
    },
    "properties": {
    "name":"Pho Cafe And Grill",
    "site":"",
    "full_address":"606 St Kilda Rd, Melbourne VIC 3004",
    "street":"606 St Kilda Rd",
    "city":"Melbourne",
    "postal_code":3004,
    "state":"Victoria",
    "country":"Australia",
    "country_code":"AU"
    }
  },
  {
    "type": "Feature",
    "geometry": {
       "type": "Point",
       "coordinates":  [ 144.9837466,-37.8030441 ]
    },
    "properties": {
    "name":"XEOM",
    "site":"http://www.xeom.com.au/",
    "full_address":"194 Smith St, Collingwood VIC 3066",
    "street":"194 Smith St",
    "city":"Collingwood",
    "postal_code":3066,
    "state":"Victoria",
    "country":"Australia",
    "country_code":"AU"
    }
  },
  {
    "type": "Feature",
    "geometry": {
       "type": "Point",
       "coordinates":  [ 144.9944486,-37.8466989 ]
    },
    "properties": {
    "name":"madam saigon baguette",
    "site":"",
    "full_address":"350 Chapel St, South Yarra VIC 3141",
    "street":"350 Chapel St",
    "city":"South Yarra",
    "postal_code":3141,
    "state":"Victoria",
    "country":"Australia",
    "country_code":"AU"
    }
  },
  {
    "type": "Feature",
    "geometry": {
       "type": "Point",
       "coordinates":  [ 145.0108729,-37.813372 ]
    },
    "properties": {
    "name":"Roll'd Victoria Gardens",
    "site":"https://rolld.com.au/location/victoria-gardens/",
    "full_address":"620 Victoria St, Richmond VIC 3121",
    "street":"620 Victoria St",
    "city":"Richmond",
    "postal_code":3121,
    "state":"Victoria",
    "country":"Australia",
    "country_code":"AU"
    }
  },
  {
    "type": "Feature",
    "geometry": {
       "type": "Point",
       "coordinates":  [ 144.9989051,-37.8105032 ]
    },
    "properties": {
    "name":"Lee Lee Hot Bread",
    "site":"",
    "full_address":"2/240 Victoria St, Richmond VIC 3121",
    "street":"2/240 Victoria St",
    "city":"Richmond",
    "postal_code":3121,
    "state":"Victoria",
    "country":"Australia",
    "country_code":"AU"
    }
  },
  {
    "type": "Feature",
    "geometry": {
       "type": "Point",
       "coordinates":  [ 144.9621357,-37.8099309 ]
    },
    "properties": {
    "name":"Roll'd Vietnamese",
    "site":"",
    "full_address":"252 La Trobe St, Melbourne VIC 3000",
    "street":"252 La Trobe St",
    "city":"Melbourne",
    "postal_code":3000,
    "state":"Victoria",
    "country":"Australia",
    "country_code":"AU"
    }
  },
  {
    "type": "Feature",
    "geometry": {
       "type": "Point",
       "coordinates":  [ 144.9640276,-37.8240845 ]
    },
    "properties": {
    "name":"Pot au Feu",
    "site":"https://www.potaufeu.com.au/",
    "full_address":"54 Kavanagh St, Southbank VIC 3006",
    "street":"54 Kavanagh St",
    "city":"Southbank",
    "postal_code":3006,
    "state":"Victoria",
    "country":"Australia",
    "country_code":"AU"
    }
  },
  {
    "type": "Feature",
    "geometry": {
       "type": "Point",
       "coordinates":  [ 144.995597,-37.825615 ]
    },
    "properties": {
    "name":"T&L - Bakery & Cafï¿½",
    "site":"",
    "full_address":"174 Swan St, Cremorne VIC 3121",
    "street":"174 Swan St",
    "city":"Cremorne",
    "postal_code":3121,
    "state":"Victoria",
    "country":"Australia",
    "country_code":"AU"
    }
  },
  {
    "type": "Feature",
    "geometry": {
       "type": "Point",
       "coordinates":  [ 145.0355172,-37.8222585 ]
    },
    "properties": {
    "name":"Mr & Mrs Banhmi",
    "site":"",
    "full_address":"640 Glenferrie Rd, Hawthorn VIC 3122",
    "street":"640 Glenferrie Rd",
    "city":"Hawthorn",
    "postal_code":3122,
    "state":"Victoria",
    "country":"Australia",
    "country_code":"AU"
    }
  },
  {
    "type": "Feature",
    "geometry": {
       "type": "Point",
       "coordinates":  [ 144.9377961,-37.8122938 ]
    },
    "properties": {
    "name":"Old Man Pho Docklands - Vietnamese Restaurant",
    "site":"https://oldmanpho.com.au/",
    "full_address":"Shop CC/4 Star Circus, Docklands VIC 3008",
    "street":"Shop CC/4 Star Circus",
    "city":"Docklands",
    "postal_code":3008,
    "state":"Victoria",
    "country":"Australia",
    "country_code":"AU"
    }
  },
  {
    "type": "Feature",
    "geometry": {
       "type": "Point",
       "coordinates":  [ 144.9494931,-37.8049189 ]
    },
    "properties": {
    "name":"Hanoi in North Melbourne",
    "site":"",
    "full_address":"8 Errol St, North Melbourne VIC 3051",
    "street":"8 Errol St",
    "city":"North Melbourne",
    "postal_code":3051,
    "state":"Victoria",
    "country":"Australia",
    "country_code":"AU"
    }
  },
  {
    "type": "Feature",
    "geometry": {
       "type": "Point",
       "coordinates":  [ 144.9920434,-37.8179146 ]
    },
    "properties": {
    "name":"Pho Rolls 62",
    "site":"",
    "full_address":"62 Bridge Rd, Richmond VIC 3121",
    "street":"62 Bridge Rd",
    "city":"Richmond",
    "postal_code":3121,
    "state":"Victoria",
    "country":"Australia",
    "country_code":"AU"
    }
  },
  {
    "type": "Feature",
    "geometry": {
       "type": "Point",
       "coordinates":  [ 144.901437,-37.799766 ]
    },
    "properties": {
    "name":"Nhu Lan Bakery",
    "site":"https://m.facebook.com/pages/Nhu-Lan/164648533560780",
    "full_address":"116 Hopkins St, Footscray VIC 3011",
    "street":"116 Hopkins St",
    "city":"Footscray",
    "postal_code":3011,
    "state":"Victoria",
    "country":"Australia",
    "country_code":"AU"
    }
  },
  {
    "type": "Feature",
    "geometry": {
       "type": "Point",
       "coordinates":  [ 144.9659716,-37.8105254 ]
    },
    "properties": {
    "name":"Old Man Pho QV Melbourne - Vietnamese Restaurant",
    "site":"http://www.oldmanpho.com.au/",
    "full_address":"SHOP 19-21, LVL 1, QV2 CNR LONSDALE AND, Swanston St, Melbourne VIC 3000",
    "street":"SHOP 19-21, LVL 1, QV2 CNR LONSDALE AND, Swanston St",
    "city":"Melbourne",
    "postal_code":3000,
    "state":"VIC",
    "country":"Australia",
    "country_code":"AU"
    }
  },
  {
    "type": "Feature",
    "geometry": {
       "type": "Point",
       "coordinates":  [ 144.9504289,-37.8102531 ]
    },
    "properties": {
    "name":"Phuoc Thanh Bakery West Melbourne",
    "site":"https://www.facebook.com/phuocthanhbakery",
    "full_address":"Shop G03/420 Spencer St, West Melbourne VIC 3003",
    "street":"Shop G03/420 Spencer St",
    "city":"West Melbourne",
    "postal_code":3003,
    "state":"Victoria",
    "country":"Australia",
    "country_code":"AU"
    }
  },
  {
    "type": "Feature",
    "geometry": {
       "type": "Point",
       "coordinates":  [ 144.9957072,-37.8256213 ]
    },
    "properties": {
    "name":"Nhan Ngai",
    "site":"https://www.facebook.com/nhanngaiaustralia",
    "full_address":"178 Swan St, Cremorne VIC 3121",
    "street":"178 Swan St",
    "city":"Cremorne",
    "postal_code":3121,
    "state":"Victoria",
    "country":"Australia",
    "country_code":"AU"
    }
  },
  {
    "type": "Feature",
    "geometry": {
       "type": "Point",
       "coordinates":  [ 144.9010425,-37.7988507 ]
    },
    "properties": {
    "name":"Banh Mi Ba Le",
    "site":"",
    "full_address":"28 Leeds St, Footscray VIC 3011",
    "street":"28 Leeds St",
    "city":"Footscray",
    "postal_code":3011,
    "state":"Victoria",
    "country":"Australia",
    "country_code":"AU"
    }
  },
  {
    "type": "Feature",
    "geometry": {
       "type": "Point",
       "coordinates":  [ 144.984828,-37.797125 ]
    },
    "properties": {
    "name":"HM Cafe at The Mag-Pie Shop",
    "site":"https://hmcafe.com.au/",
    "full_address":"388 Smith St, Collingwood VIC 3066",
    "street":"388 Smith St",
    "city":"Collingwood",
    "postal_code":3066,
    "state":"Victoria",
    "country":"Australia",
    "country_code":"AU"
    }
  },
  {
    "type": "Feature",
    "geometry": {
       "type": "Point",
       "coordinates":  [ 144.994366,-37.852152 ]
    },
    "properties": {
    "name":"Hanoi Hannah Express Lane - Vietnamese Restaurant",
    "site":"https://expresslane.hanoihannah.com.au/",
    "full_address":"186 High St, Windsor VIC 3181",
    "street":"186 High St",
    "city":"Windsor",
    "postal_code":3181,
    "state":"Victoria",
    "country":"Australia",
    "country_code":"AU"
    }
  },
  {
    "type": "Feature",
    "geometry": {
       "type": "Point",
       "coordinates":  [ 144.957957,-37.817664 ]
    },
    "properties": {
    "name":"Le's Vietnamese Street Food",
    "site":"",
    "full_address":"480 Collins St, Melbourne VIC 3000",
    "street":"480 Collins St",
    "city":"Melbourne",
    "postal_code":3000,
    "state":"Victoria",
    "country":"Australia",
    "country_code":"AU"
    }
  },
  {
    "type": "Feature",
    "geometry": {
       "type": "Point",
       "coordinates":  [ 144.9934954,-37.8492092 ]
    },
    "properties": {
    "name":"N.Tran Bakery",
    "site":"",
    "full_address":"263 Chapel St, Prahran VIC 3181",
    "street":"263 Chapel St",
    "city":"Prahran",
    "postal_code":3181,
    "state":"Victoria",
    "country":"Australia",
    "country_code":"AU"
    }
  },
  {
    "type": "Feature",
    "geometry": {
       "type": "Point",
       "coordinates":  [ 144.99652,-37.810412 ]
    },
    "properties": {
    "name":"Phuoc Hung Bakery",
    "site":"http://phuochungbakery.com.au/",
    "full_address":"152 Victoria St, Richmond VIC 3121",
    "street":"152 Victoria St",
    "city":"Richmond",
    "postal_code":3121,
    "state":"Victoria",
    "country":"Australia",
    "country_code":"AU"
    }
  },
  {
    "type": "Feature",
    "geometry": {
       "type": "Point",
       "coordinates":  [ 144.993335,-37.846601 ]
    },
    "properties": {
    "name":"Trang Bakery & Cafe",
    "site":"",
    "full_address":"207 Commercial Rd, South Yarra VIC 3141",
    "street":"207 Commercial Rd",
    "city":"South Yarra",
    "postal_code":3141,
    "state":"Victoria",
    "country":"Australia",
    "country_code":"AU"
    }
  },
  {
    "type": "Feature",
    "geometry": {
       "type": "Point",
       "coordinates":  [ 144.9847502,-37.7973409 ]
    },
    "properties": {
    "name":"Trang Bakery and Cafe",
    "site":"https://www.facebook.com/trangbakery/",
    "full_address":"382 Smith St, Collingwood VIC 3066",
    "street":"382 Smith St",
    "city":"Collingwood",
    "postal_code":3066,
    "state":"Victoria",
    "country":"Australia",
    "country_code":"AU"
    }
  },
  {
    "type": "Feature",
    "geometry": {
       "type": "Point",
       "coordinates":  [ 144.9840034,-37.8015467 ]
    },
    "properties": {
    "name":"Sunny's Bakery",
    "site":"",
    "full_address":"252 Smith St, Collingwood VIC 3066",
    "street":"252 Smith St",
    "city":"Collingwood",
    "postal_code":3066,
    "state":"Victoria",
    "country":"Australia",
    "country_code":"AU"
    }
  },
  {
    "type": "Feature",
    "geometry": {
       "type": "Point",
       "coordinates":  [ 144.9964288,-37.8102297 ]
    },
    "properties": {
    "name":"Huong Huong Cake Shop",
    "site":"",
    "full_address":"148 Victoria St, Richmond VIC 3121",
    "street":"148 Victoria St",
    "city":"Richmond",
    "postal_code":3121,
    "state":"Victoria",
    "country":"Australia",
    "country_code":"AU"
    }
  },
  {
    "type": "Feature",
    "geometry": {
       "type": "Point",
       "coordinates":  [ 144.9599682,-37.8310723 ]
    },
    "properties": {
    "name":"Pho Om ( ET NOU )",
    "site":"http://www.etnou.com.au/",
    "full_address":"219 Clarendon St, South Melbourne VIC 3205",
    "street":"219 Clarendon St",
    "city":"South Melbourne",
    "postal_code":3205,
    "state":"Victoria",
    "country":"Australia",
    "country_code":"AU"
    }
  },
  {
    "type": "Feature",
    "geometry": {
       "type": "Point",
       "coordinates":  [ 144.9929501,-37.8555871 ]
    },
    "properties": {
    "name":"MD & TRUONG Pho",
    "site":"https://mistertruongs2.business.site/",
    "full_address":"62 Chapel St, Windsor VIC 3181",
    "street":"62 Chapel St",
    "city":"Windsor",
    "postal_code":3181,
    "state":"Victoria",
    "country":"Australia",
    "country_code":"AU"
    }
  },
  {
    "type": "Feature",
    "geometry": {
       "type": "Point",
       "coordinates":  [ 145.018384,-37.77603 ]
    },
    "properties": {
    "name":"Tasty Banh Mi",
    "site":"https://tasty-banh-mi.business.site/?utm_source=gmb&utm_medium=referral",
    "full_address":"146B Station St, Fairfield VIC 3078",
    "street":"146B Station St",
    "city":"Fairfield",
    "postal_code":3078,
    "state":"Victoria",
    "country":"Australia",
    "country_code":"AU"
    }
  },
  {
    "type": "Feature",
    "geometry": {
       "type": "Point",
       "coordinates":  [ 144.978795,-37.797397 ]
    },
    "properties": {
    "name":"Viet Rose Cafe",
    "site":"",
    "full_address":"330 Brunswick St, Fitzroy VIC 3065",
    "street":"330 Brunswick St",
    "city":"Fitzroy",
    "postal_code":3065,
    "state":"Victoria",
    "country":"Australia",
    "country_code":"AU"
    }
  },
  {
    "type": "Feature",
    "geometry": {
       "type": "Point",
       "coordinates":  [ 144.955867,-37.8135092 ]
    },
    "properties": {
    "name":"Benny's Bakery Cafe.",
    "site":"",
    "full_address":"n/535 Little Lonsdale St, Melbourne VIC 3000",
    "street":"n/535 Little Lonsdale St",
    "city":"Melbourne",
    "postal_code":3000,
    "state":"Victoria",
    "country":"Australia",
    "country_code":"AU"
    }
  },
  {
    "type": "Feature",
    "geometry": {
       "type": "Point",
       "coordinates":  [ 144.9767923,-37.837678 ]
    },
    "properties": {
    "name":"Roll'd St Kilda Rd",
    "site":"https://rolld.com.au/location/417-st-kilda/",
    "full_address":"3/417 St Kilda Rd, Melbourne VIC 3004",
    "street":"3/417 St Kilda Rd",
    "city":"Melbourne",
    "postal_code":3004,
    "state":"Victoria",
    "country":"Australia",
    "country_code":"AU"
    }
  },
  {
    "type": "Feature",
    "geometry": {
       "type": "Point",
       "coordinates":  [ 145.029425,-37.806953 ]
    },
    "properties": {
    "name":"Little Pho Tuck Shop",
    "site":"https://www.instagram.com/littlephotuckshop/",
    "full_address":"6 Woodford Ave, Kew VIC 3101",
    "street":"6 Woodford Ave",
    "city":"Kew",
    "postal_code":3101,
    "state":"Victoria",
    "country":"Australia",
    "country_code":"AU"
    }
  },
  {
    "type": "Feature",
    "geometry": {
       "type": "Point",
       "coordinates":  [ 144.9398109,-37.8420644 ]
    },
    "properties": {
    "name":"Hanoi Mee Kitchen & Bar",
    "site":"http://www.hanoimee.com.au/",
    "full_address":"140 Rouse St, Port Melbourne VIC 3207",
    "street":"140 Rouse St",
    "city":"Port Melbourne",
    "postal_code":3207,
    "state":"Victoria",
    "country":"Australia",
    "country_code":"AU"
    }
  },
  {
    "type": "Feature",
    "geometry": {
       "type": "Point",
       "coordinates":  [ 144.9602304,-37.8116783 ]
    },
    "properties": {
    "name":"Paperboy Kitchen",
    "site":"http://www.paperboy.com.au/",
    "full_address":"320 Little Lonsdale St, Melbourne VIC 3000",
    "street":"320 Little Lonsdale St",
    "city":"Melbourne",
    "postal_code":3000,
    "state":"Victoria",
    "country":"Australia",
    "country_code":"AU"
    }
  },
  {
    "type": "Feature",
    "geometry": {
       "type": "Point",
       "coordinates":  [ 144.9811032,-37.8692262 ]
    },
    "properties": {
    "name":"Bullseye Banh Mi",
    "site":"https://www.facebook.com/Bullseye-Banh-Mi-152559962008080/",
    "full_address":"194/196 Barkly St, St Kilda VIC 3182",
    "street":"194/196 Barkly St",
    "city":"St Kilda",
    "postal_code":3182,
    "state":"Victoria",
    "country":"Australia",
    "country_code":"AU"
    }
  },
  {
    "type": "Feature",
    "geometry": {
       "type": "Point",
       "coordinates":  [ 144.9622222,-37.8217854 ]
    },
    "properties": {
    "name":"VPR Asian Street Food",
    "site":"http://vprasian.com.au/",
    "full_address":"19r/3 Freshwater Pl, Southbank VIC 3006",
    "street":"19r/3 Freshwater Pl",
    "city":"Southbank",
    "postal_code":3006,
    "state":"Victoria",
    "country":"Australia",
    "country_code":"AU"
    }
  },
  {
    "type": "Feature",
    "geometry": {
       "type": "Point",
       "coordinates":  [ 144.9646432,-37.8180754 ]
    },
    "properties": {
    "name":"Pho Flinders Express",
    "site":"https://phoflindersexpress.business.site/",
    "full_address":"288/290 Flinders St, Melbourne VIC 3000",
    "street":"288/290 Flinders St",
    "city":"Melbourne",
    "postal_code":3000,
    "state":"Victoria",
    "country":"Australia",
    "country_code":"AU"
    }
  },
  {
    "type": "Feature",
    "geometry": {
       "type": "Point",
       "coordinates":  [ 144.9786579,-37.7962681 ]
    },
    "properties": {
    "name":"Viet Rose Vietnamese Restaurant",
    "site":"",
    "full_address":"363 Brunswick St, Fitzroy VIC 3065",
    "street":"363 Brunswick St",
    "city":"Fitzroy",
    "postal_code":3065,
    "state":"Victoria",
    "country":"Australia",
    "country_code":"AU"
    }
  },
  {
    "type": "Feature",
    "geometry": {
       "type": "Point",
       "coordinates":  [ 144.9685262,-37.8357152 ]
    },
    "properties": {
    "name":"Ve Nha",
    "site":"",
    "full_address":"60 Stead St, South Melbourne VIC 3205",
    "street":"60 Stead St",
    "city":"South Melbourne",
    "postal_code":3205,
    "state":"Victoria",
    "country":"Australia",
    "country_code":"AU"
    }
  },
  {
    "type": "Feature",
    "geometry": {
       "type": "Point",
       "coordinates":  [ 144.9927321,-37.8541794 ]
    },
    "properties": {
    "name":"Hoang's Bakery",
    "site":"http://hoangs-bakery.jany.io/",
    "full_address":"101 Chapel St, Windsor VIC 3181",
    "street":"101 Chapel St",
    "city":"Windsor",
    "postal_code":3181,
    "state":"Victoria",
    "country":"Australia",
    "country_code":"AU"
    }
  },
  {
    "type": "Feature",
    "geometry": {
       "type": "Point",
       "coordinates":  [ 144.9011804,-37.7997735 ]
    },
    "properties": {
    "name":"To's Bakery & Cafe",
    "site":"",
    "full_address":"122 Hopkins St, Footscray VIC 3011",
    "street":"122 Hopkins St",
    "city":"Footscray",
    "postal_code":3011,
    "state":"Victoria",
    "country":"Australia",
    "country_code":"AU"
    }
  },
  {
    "type": "Feature",
    "geometry": {
       "type": "Point",
       "coordinates":  [ 145.057787,-37.831326 ]
    },
    "properties": {
    "name":"Trang Bakery & Cafe",
    "site":"https://www.facebook.com/trangbakery",
    "full_address":"25/519-525 Riversdale Rd, Camberwell VIC 3124",
    "street":"25/519-525 Riversdale Rd",
    "city":"Camberwell",
    "postal_code":3124,
    "state":"Victoria",
    "country":"Australia",
    "country_code":"AU"
    }
  },
  {
    "type": "Feature",
    "geometry": {
       "type": "Point",
       "coordinates":  [ 145.0678262,-37.8898344 ]
    },
    "properties": {
    "name":"Banh Mi & Pho",
    "site":"",
    "full_address":"472 Neerim Rd, Murrumbeena VIC 3163",
    "street":"472 Neerim Rd",
    "city":"Murrumbeena",
    "postal_code":3163,
    "state":"Victoria",
    "country":"Australia",
    "country_code":"AU"
    }
  },
  {
    "type": "Feature",
    "geometry": {
       "type": "Point",
       "coordinates":  [ 144.8984189,-37.7998156 ]
    },
    "properties": {
    "name":"French Baguette Cafe",
    "site":"",
    "full_address":"177 Barkly St, Footscray VIC 3011",
    "street":"177 Barkly St",
    "city":"Footscray",
    "postal_code":3011,
    "state":"Victoria",
    "country":"Australia",
    "country_code":"AU"
    }
  },
  {
    "type": "Feature",
    "geometry": {
       "type": "Point",
       "coordinates":  [ 145.0357256,-37.9182237 ]
    },
    "properties": {
    "name":"The Little Banh Mi House",
    "site":"https://www.facebook.com/thelittlebanhmihouse/",
    "full_address":"374 Centre Rd, Bentleigh VIC 3204",
    "street":"374 Centre Rd",
    "city":"Bentleigh",
    "postal_code":3204,
    "state":"Victoria",
    "country":"Australia",
    "country_code":"AU"
    }
  },
  {
    "type": "Feature",
    "geometry": {
       "type": "Point",
       "coordinates":  [ 145.0328853,-37.72124 ]
    },
    "properties": {
    "name":"Banh Mi Brother Food Truck",
    "site":"",
    "full_address":"867 Plenty Rd, Kingsbury VIC 3083",
    "street":"867 Plenty Rd",
    "city":"Kingsbury",
    "postal_code":3083,
    "state":"Victoria",
    "country":"Australia",
    "country_code":"AU"
    }
  },
  {
    "type": "Feature",
    "geometry": {
       "type": "Point",
       "coordinates":  [ 144.9764502,-37.7982709 ]
    },
    "properties": {
    "name":"Saigon Street Eats - FITZROY",
    "site":"http://www.saigonstreeteats.com.au/",
    "full_address":"52 Johnston St, Fitzroy VIC 3065",
    "street":"52 Johnston St",
    "city":"Fitzroy",
    "postal_code":3065,
    "state":"Victoria",
    "country":"Australia",
    "country_code":"AU"
    }
  },
  {
    "type": "Feature",
    "geometry": {
       "type": "Point",
       "coordinates":  [ 144.9932613,-37.8689364 ]
    },
    "properties": {
    "name":"Mopho Canteen",
    "site":"",
    "full_address":"197 Carlisle St, Balaclava VIC 3183",
    "street":"197 Carlisle St",
    "city":"Balaclava",
    "postal_code":3183,
    "state":"Victoria",
    "country":"Australia",
    "country_code":"AU"
    }
  },
  {
    "type": "Feature",
    "geometry": {
       "type": "Point",
       "coordinates":  [ 144.9562147,-37.766168 ]
    },
    "properties": {
    "name":"Shop Bao Ngoc",
    "site":"",
    "full_address":"387 Victoria St, Brunswick VIC 3056",
    "street":"387 Victoria St",
    "city":"Brunswick",
    "postal_code":3056,
    "state":"Victoria",
    "country":"Australia",
    "country_code":"AU"
    }
  },
  {
    "type": "Feature",
    "geometry": {
       "type": "Point",
       "coordinates":  [ 145.0036014,-37.7391626 ]
    },
    "properties": {
    "name":"Mai Lan Bakery",
    "site":"",
    "full_address":"435 High St, Preston VIC 3072",
    "street":"435 High St",
    "city":"Preston",
    "postal_code":3072,
    "state":"Victoria",
    "country":"Australia",
    "country_code":"AU"
    }
  },
  {
    "type": "Feature",
    "geometry": {
       "type": "Point",
       "coordinates":  [ 144.80247,-37.74437 ]
    },
    "properties": {
    "name":"Banh Mi Viet",
    "site":"https://banh-mi-viet-bakery.business.site/",
    "full_address":"290 Main Rd E, St Albans VIC 3021",
    "street":"290 Main Rd E",
    "city":"St Albans",
    "postal_code":3021,
    "state":"Victoria",
    "country":"Australia",
    "country_code":"AU"
    }
  },
  {
    "type": "Feature",
    "geometry": {
       "type": "Point",
       "coordinates":  [ 145.066634,-37.9450292 ]
    },
    "properties": {
    "name":"The Banh Mi Girl",
    "site":"http://business.google.com/website/mommaskitchen",
    "full_address":"36 Levanswell Rd, Moorabbin VIC 3189",
    "street":"36 Levanswell Rd",
    "city":"Moorabbin",
    "postal_code":3189,
    "state":"Victoria",
    "country":"Australia",
    "country_code":"AU"
    }
  },
  {
    "type": "Feature",
    "geometry": {
       "type": "Point",
       "coordinates":  [ 145.11931,-37.925769 ]
    },
    "properties": {
    "name":"Banh Mi Bakery & Cafe",
    "site":"https://banhmibakery-cafe.wixsite.com/clayton",
    "full_address":"347 Clayton Rd, Clayton VIC 3168",
    "street":"347 Clayton Rd",
    "city":"Clayton",
    "postal_code":3168,
    "state":"Victoria",
    "country":"Australia",
    "country_code":"AU"
    }
  },
  {
    "type": "Feature",
    "geometry": {
       "type": "Point",
       "coordinates":  [ 144.899664,-37.8593478 ]
    },
    "properties": {
    "name":"VN Wrap & Roll - Williamstown",
    "site":"http://www.vnwrapnroll.com.au/",
    "full_address":"39 Ferguson St, Williamstown VIC 3016",
    "street":"39 Ferguson St",
    "city":"Williamstown",
    "postal_code":3016,
    "state":"Victoria",
    "country":"Australia",
    "country_code":"AU"
    }
  },
  {
    "type": "Feature",
    "geometry": {
       "type": "Point",
       "coordinates":  [ 144.9609044,-37.773548 ]
    },
    "properties": {
    "name":"Hanoi Rose",
    "site":"http://hanoirose.com.au/",
    "full_address":"161 Sydney Rd, Brunswick VIC 3056",
    "street":"161 Sydney Rd",
    "city":"Brunswick",
    "postal_code":3056,
    "state":"Victoria",
    "country":"Australia",
    "country_code":"AU"
    }
  },
  {
    "type": "Feature",
    "geometry": {
       "type": "Point",
       "coordinates":  [ 144.8325818,-37.7836584 ]
    },
    "properties": {
    "name":"Fresh Chilli Deli",
    "site":"http://www.freshchillideli.com/",
    "full_address":"304 Hampshire Rd, Sunshine VIC 3020",
    "street":"304 Hampshire Rd",
    "city":"Sunshine",
    "postal_code":3020,
    "state":"Victoria",
    "country":"Australia",
    "country_code":"AU"
    }
  },
  {
    "type": "Feature",
    "geometry": {
       "type": "Point",
       "coordinates":  [ 144.98983,-37.868098 ]
    },
    "properties": {
    "name":"Banh Mi Baby",
    "site":"",
    "full_address":"172 Carlisle St, St Kilda VIC 3182",
    "street":"172 Carlisle St",
    "city":"St Kilda",
    "postal_code":3182,
    "state":"Victoria",
    "country":"Australia",
    "country_code":"AU"
    }
  },
  {
    "type": "Feature",
    "geometry": {
       "type": "Point",
       "coordinates":  [ 144.9949679,-37.8690623 ]
    },
    "properties": {
    "name":"Saigon Street Eats - St Kilda East",
    "site":"http://www.saigonstreeteats.com.au/",
    "full_address":"249 Carlisle St, Balaclava VIC 3183",
    "street":"249 Carlisle St",
    "city":"Balaclava",
    "postal_code":3183,
    "state":"Victoria",
    "country":"Australia",
    "country_code":"AU"
    }
  },
  {
    "type": "Feature",
    "geometry": {
       "type": "Point",
       "coordinates":  [ 145.0398419,-37.9486434 ]
    },
    "properties": {
    "name":"Banh Street",
    "site":"https://www.facebook.com/Banhstreet.au/",
    "full_address":"270 Highett Rd, Highett VIC 3190",
    "street":"270 Highett Rd",
    "city":"Highett",
    "postal_code":3190,
    "state":"Victoria",
    "country":"Australia",
    "country_code":"AU"
    }
  },
  {
    "type": "Feature",
    "geometry": {
       "type": "Point",
       "coordinates":  [ 144.9232757,-37.7671295 ]
    },
    "properties": {
    "name":"Minh's Vietnamese And Chinese",
    "site":"",
    "full_address":"41 Puckle St, Moonee Ponds VIC 3039",
    "street":"41 Puckle St",
    "city":"Moonee Ponds",
    "postal_code":3039,
    "state":"Victoria",
    "country":"Australia",
    "country_code":"AU"
    }
  },
  {
    "type": "Feature",
    "geometry": {
       "type": "Point",
       "coordinates":  [ 144.9641846,-37.8108237 ]
    },
    "properties": {
    "name":"Mr. Kitchen",
    "site":"http://mr-kitchen.weebly.com/menu.html",
    "full_address":"319 Swanston St, Melbourne VIC 3000",
    "street":"319 Swanston St",
    "city":"Melbourne",
    "postal_code":3000,
    "state":"Victoria",
    "country":"Australia",
    "country_code":"AU"
    }
  },
  {
    "type": "Feature",
    "geometry": {
       "type": "Point",
       "coordinates":  [ 144.904412,-37.863309 ]
    },
    "properties": {
    "name":"Ms Kim Vietnamese Restaurant & Bar",
    "site":"http://mskim.com.au/",
    "full_address":"147 Nelson Pl, Williamstown VIC 3016",
    "street":"147 Nelson Pl",
    "city":"Williamstown",
    "postal_code":3016,
    "state":"Victoria",
    "country":"Australia",
    "country_code":"AU"
    }
  },
  {
    "type": "Feature",
    "geometry": {
       "type": "Point",
       "coordinates":  [ 144.923782,-37.7668386 ]
    },
    "properties": {
    "name":"Ba Sar",
    "site":"http://www.basar.com.au/",
    "full_address":"26 Puckle St, Moonee Ponds VIC 3039",
    "street":"26 Puckle St",
    "city":"Moonee Ponds",
    "postal_code":3039,
    "state":"Victoria",
    "country":"Australia",
    "country_code":"AU"
    }
  },
  {
    "type": "Feature",
    "geometry": {
       "type": "Point",
       "coordinates":  [ 144.9440442,-37.8209751 ]
    },
    "properties": {
    "name":"Kenny's Bakery Cafe",
    "site":"http://www.kennysbakerycafe.com.au/",
    "full_address":"35 Merchant St, Docklands VIC 3008",
    "street":"35 Merchant St",
    "city":"Docklands",
    "postal_code":3008,
    "state":"Victoria",
    "country":"Australia",
    "country_code":"AU"
    }
  },
  {
    "type": "Feature",
    "geometry": {
       "type": "Point",
       "coordinates":  [ 145.0651822,-37.861599 ]
    },
    "properties": {
    "name":"So Pho So Good",
    "site":"http://sophosogood.com.au/",
    "full_address":"25 High St, Glen Iris VIC 3146",
    "street":"25 High St",
    "city":"Glen Iris",
    "postal_code":3146,
    "state":"Victoria",
    "country":"Australia",
    "country_code":"AU"
    }
  },
  {
    "type": "Feature",
    "geometry": {
       "type": "Point",
       "coordinates":  [ 144.9698651,-37.8128547 ]
    },
    "properties": {
    "name":"Amie Bakery Cafe Southern Cross Lane",
    "site":"http://amiebakerycafe.com.au/",
    "full_address":"Shop W1 Southern Cross Lane, 111 Bourke St, Melbourne VIC 3000",
    "street":"Shop W1 Southern Cross Lane, 111 Bourke St",
    "city":"Melbourne",
    "postal_code":3000,
    "state":"VIC",
    "country":"Australia",
    "country_code":"AU"
    }
  },
  {
    "type": "Feature",
    "geometry": {
       "type": "Point",
       "coordinates":  [ 144.9441479,-37.7619243 ]
    },
    "properties": {
    "name":"Mister Truong's 1",
    "site":"",
    "full_address":"87 Melville Rd, Brunswick West VIC 3055",
    "street":"87 Melville Rd",
    "city":"Brunswick West",
    "postal_code":3055,
    "state":"Victoria",
    "country":"Australia",
    "country_code":"AU"
    }
  },
  {
    "type": "Feature",
    "geometry": {
       "type": "Point",
       "coordinates":  [ 145.248192,-38.0051548 ]
    },
    "properties": {
    "name":"House of Banh Mi",
    "site":"http://www.instagram.com/houseofbanhmi",
    "full_address":"Shop 4/125 Princes Hwy, Dandenong South VIC 3175",
    "street":"Shop 4/125 Princes Hwy",
    "city":"Dandenong South",
    "postal_code":3175,
    "state":"Victoria",
    "country":"Australia",
    "country_code":"AU"
    }
  },
  {
    "type": "Feature",
    "geometry": {
       "type": "Point",
       "coordinates":  [ 145.0300667,-37.7382462 ]
    },
    "properties": {
    "name":"Roll'd Northland",
    "site":"https://rolld.com.au/location/northland/",
    "full_address":"c025/2-50 Murray Rd, Preston VIC 3072",
    "street":"c025/2-50 Murray Rd",
    "city":"Preston",
    "postal_code":3072,
    "state":"Victoria",
    "country":"Australia",
    "country_code":"AU"
    }
  },
  {
    "type": "Feature",
    "geometry": {
       "type": "Point",
       "coordinates":  [ 145.064434,-37.743544 ]
    },
    "properties": {
    "name":"Aus Vi Bakery",
    "site":"https://www.ausvibakery.com/",
    "full_address":"86 Lower Plenty Rd, Rosanna VIC 3084",
    "street":"86 Lower Plenty Rd",
    "city":"Rosanna",
    "postal_code":3084,
    "state":"Victoria",
    "country":"Australia",
    "country_code":"AU"
    }
  },
  {
    "type": "Feature",
    "geometry": {
       "type": "Point",
       "coordinates":  [ 144.8006926,-37.74226 ]
    },
    "properties": {
    "name":"Fresh Chilli Deli",
    "site":"http://www.freshchillideli.com/",
    "full_address":"61 Alfrieda St, St Albans VIC 3021",
    "street":"61 Alfrieda St",
    "city":"St Albans",
    "postal_code":3021,
    "state":"Victoria",
    "country":"Australia",
    "country_code":"AU"
    }
  },
  {
    "type": "Feature",
    "geometry": {
       "type": "Point",
       "coordinates":  [ 145.2100298,-37.9888823 ]
    },
    "properties": {
    "name":"BMNC - Banh Mi & Noodle Co",
    "site":"http://www.banhminoodle.co/",
    "full_address":"42 Halpin Way, Dandenong VIC 3175",
    "street":"42 Halpin Way",
    "city":"Dandenong",
    "postal_code":3175,
    "state":"Victoria",
    "country":"Australia",
    "country_code":"AU"
    }
  },
  {
    "type": "Feature",
    "geometry": {
       "type": "Point",
       "coordinates":  [ 145.182906,-37.836713 ]
    },
    "properties": {
    "name":"Ms Banh Mi Bakery & Cafe",
    "site":"",
    "full_address":"17 Brentford Square, Forest Hill VIC 3131",
    "street":"17 Brentford Square",
    "city":"Forest Hill",
    "postal_code":3131,
    "state":"Victoria",
    "country":"Australia",
    "country_code":"AU"
    }
  },
  {
    "type": "Feature",
    "geometry": {
       "type": "Point",
       "coordinates":  [ 145.0034707,-37.8109881 ]
    },
    "properties": {
    "name":"Amie Bakery Richmond",
    "site":"http://www.amiebakerycafe.com.au/",
    "full_address":"362 Victoria St, Abbotsford VIC 3067",
    "street":"362 Victoria St",
    "city":"Abbotsford",
    "postal_code":3067,
    "state":"Victoria",
    "country":"Australia",
    "country_code":"AU"
    }
  },
  {
    "type": "Feature",
    "geometry": {
       "type": "Point",
       "coordinates":  [ 145.0005817,-37.7596897 ]
    },
    "properties": {
    "name":"Crosta D'Oro Hot Bread",
    "site":"",
    "full_address":"656 High St, Thornbury VIC 3071",
    "street":"656 High St",
    "city":"Thornbury",
    "postal_code":3071,
    "state":"Victoria",
    "country":"Australia",
    "country_code":"AU"
    }
  },
  {
    "type": "Feature",
    "geometry": {
       "type": "Point",
       "coordinates":  [ 144.9562873,-37.8328246 ]
    },
    "properties": {
    "name":"Ba Ba Rolls",
    "site":"",
    "full_address":"South Melbourne Market",
    "street":"South Melbourne Market",
    "city":"South Melbourne",
    "postal_code":null,
    "state":"VIC",
    "country":"Australia",
    "country_code":"AU"
    }
  },
  {
    "type": "Feature",
    "geometry": {
       "type": "Point",
       "coordinates":  [ 145.069528,-37.980871 ]
    },
    "properties": {
    "name":"VIP Banh Mi & Pho",
    "site":"",
    "full_address":"92 Nepean Hwy, Mentone VIC 3194",
    "street":"92 Nepean Hwy",
    "city":"Mentone",
    "postal_code":3194,
    "state":"Victoria",
    "country":"Australia",
    "country_code":"AU"
    }
  },
  {
    "type": "Feature",
    "geometry": {
       "type": "Point",
       "coordinates":  [ 145.1521179,-37.9522047 ]
    },
    "properties": {
    "name":"Bun Bun Bakery",
    "site":"https://m.facebook.com/Bun-Bun-Bakery-938185999531103/",
    "full_address":"1/288 Springvale Rd, Springvale VIC 3171",
    "street":"1/288 Springvale Rd",
    "city":"Springvale",
    "postal_code":3171,
    "state":"Victoria",
    "country":"Australia",
    "country_code":"AU"
    }
  },
  {
    "type": "Feature",
    "geometry": {
       "type": "Point",
       "coordinates":  [ 144.948754,-37.808747 ]
    },
    "properties": {
    "name":"B.cuz Coffee & Eatery",
    "site":"http://facebook.com/bcuzcafe",
    "full_address":"505-507 Spencer St, West Melbourne VIC 3003",
    "street":"505-507 Spencer St",
    "city":"West Melbourne",
    "postal_code":3003,
    "state":"Victoria",
    "country":"Australia",
    "country_code":"AU"
    }
  },
  {
    "type": "Feature",
    "geometry": {
       "type": "Point",
       "coordinates":  [ 144.916068,-37.704759 ]
    },
    "properties": {
    "name":"T&D Hot Bread",
    "site":"",
    "full_address":"814 Pascoe Vale Rd, Glenroy VIC 3046",
    "street":"814 Pascoe Vale Rd",
    "city":"Glenroy",
    "postal_code":3046,
    "state":"Victoria",
    "country":"Australia",
    "country_code":"AU"
    }
  },
  {
    "type": "Feature",
    "geometry": {
       "type": "Point",
       "coordinates":  [ 144.829047,-37.7622358 ]
    },
    "properties": {
    "name":"VN Wrap & Roll - Sunshine North",
    "site":"http://vnwrapnroll.com.au/",
    "full_address":"24 Furlong Rd, Sunshine North VIC 3020",
    "street":"24 Furlong Rd",
    "city":"Sunshine North",
    "postal_code":3020,
    "state":"Victoria",
    "country":"Australia",
    "country_code":"AU"
    }
  },
  {
    "type": "Feature",
    "geometry": {
       "type": "Point",
       "coordinates":  [ 144.900629,-37.801495 ]
    },
    "properties": {
    "name":"Sunny Nguyen Bakery",
    "site":"",
    "full_address":"30 Irving St, Footscray VIC 3011",
    "street":"30 Irving St",
    "city":"Footscray",
    "postal_code":3011,
    "state":"Victoria",
    "country":"Australia",
    "country_code":"AU"
    }
  },
  {
    "type": "Feature",
    "geometry": {
       "type": "Point",
       "coordinates":  [ 145.0289748,-37.7394149 ]
    },
    "properties": {
    "name":"Saigon Corner Cafe",
    "site":"https://cafe-saigon-corner.business.site/?utm_source=gmb&utm_medium=referral",
    "full_address":"w064/2-50 Murray Rd, Preston VIC 3072",
    "street":"w064/2-50 Murray Rd",
    "city":"Preston",
    "postal_code":3072,
    "state":"Victoria",
    "country":"Australia",
    "country_code":"AU"
    }
  },
  {
    "type": "Feature",
    "geometry": {
       "type": "Point",
       "coordinates":  [ 144.8324077,-37.7845118 ]
    },
    "properties": {
    "name":"B & T Bakery",
    "site":"",
    "full_address":"286A Hampshire Rd, Sunshine VIC 3020",
    "street":"286A Hampshire Rd",
    "city":"Sunshine",
    "postal_code":3020,
    "state":"Victoria",
    "country":"Australia",
    "country_code":"AU"
    }
  },
  {
    "type": "Feature",
    "geometry": {
       "type": "Point",
       "coordinates":  [ 144.9565046,-37.8137291 ]
    },
    "properties": {
    "name":"Peddler Tuckshop CBD",
    "site":"",
    "full_address":"528 Lonsdale St, Melbourne VIC 3000",
    "street":"528 Lonsdale St",
    "city":"Melbourne",
    "postal_code":3000,
    "state":"Victoria",
    "country":"Australia",
    "country_code":"AU"
    }
  },
  {
    "type": "Feature",
    "geometry": {
       "type": "Point",
       "coordinates":  [ 145.1916847,-37.8163691 ]
    },
    "properties": {
    "name":"Wendy's Bakery.",
    "site":"",
    "full_address":"473 Whitehorse Rd, Mitcham VIC 3132",
    "street":"473 Whitehorse Rd",
    "city":"Mitcham",
    "postal_code":3132,
    "state":"Victoria",
    "country":"Australia",
    "country_code":"AU"
    }
  },
  {
    "type": "Feature",
    "geometry": {
       "type": "Point",
       "coordinates":  [ 145.1520122,-37.9526613 ]
    },
    "properties": {
    "name":"Tabac Bakery",
    "site":"http://facebook.com/tabacbakery",
    "full_address":"296 Springvale Rd, Springvale VIC 3171",
    "street":"296 Springvale Rd",
    "city":"Springvale",
    "postal_code":3171,
    "state":"Victoria",
    "country":"Australia",
    "country_code":"AU"
    }
  },
  {
    "type": "Feature",
    "geometry": {
       "type": "Point",
       "coordinates":  [ 144.7724405,-37.7704702 ]
    },
    "properties": {
    "name":"Western Rolls",
    "site":"https://www.eatviet.com.au/",
    "full_address":"2B Burnside St, Deer Park VIC 3023",
    "street":"2B Burnside St",
    "city":"Deer Park",
    "postal_code":3023,
    "state":"Victoria",
    "country":"Australia",
    "country_code":"AU"
    }
  },
  {
    "type": "Feature",
    "geometry": {
       "type": "Point",
       "coordinates":  [ 145.2653417,-37.8418145 ]
    },
    "properties": {
    "name":"Bamboo Asian Cuisine",
    "site":"https://m.facebook.com/pages/Bamboo-Asian-Cuisine/1491458531069994",
    "full_address":"Shop 3/2-4 High St, Bayswater VIC 3153",
    "street":"Shop 3/2-4 High St",
    "city":"Bayswater",
    "postal_code":3153,
    "state":"Victoria",
    "country":"Australia",
    "country_code":"AU"
    }
  },
  {
    "type": "Feature",
    "geometry": {
       "type": "Point",
       "coordinates":  [ 145.304335,-37.823242 ]
    },
    "properties": {
    "name":"Ms Banh Mi",
    "site":"",
    "full_address":"253 Colchester Rd, Kilsyth South VIC 3137",
    "street":"253 Colchester Rd",
    "city":"Kilsyth South",
    "postal_code":3137,
    "state":"Victoria",
    "country":"Australia",
    "country_code":"AU"
    }
  },
  {
    "type": "Feature",
    "geometry": {
       "type": "Point",
       "coordinates":  [ 144.9935224,-37.7191887 ]
    },
    "properties": {
    "name":"Volcano Hot Bread Kitchen",
    "site":"https://m.facebook.com/pages/Volcano-Hot-Bread-Kitchen/120988207954573",
    "full_address":"712 Gilbert Rd, Reservoir VIC 3073",
    "street":"712 Gilbert Rd",
    "city":"Reservoir",
    "postal_code":3073,
    "state":"Victoria",
    "country":"Australia",
    "country_code":"AU"
    }
  },
  {
    "type": "Feature",
    "geometry": {
       "type": "Point",
       "coordinates":  [ 144.9529161,-37.817035 ]
    },
    "properties": {
    "name":"POTTO",
    "site":"http://www.potto.com.au/",
    "full_address":"Shop T1/201 Spencer St, Docklands VIC 3008",
    "street":"Shop T1/201 Spencer St",
    "city":"Docklands",
    "postal_code":3008,
    "state":"Victoria",
    "country":"Australia",
    "country_code":"AU"
    }
  },
  {
    "type": "Feature",
    "geometry": {
       "type": "Point",
       "coordinates":  [ 144.890948,-37.737081 ]
    },
    "properties": {
    "name":"Lai Hot Bread",
    "site":"",
    "full_address":"425 Keilor Rd, Niddrie VIC 3042",
    "street":"425 Keilor Rd",
    "city":"Niddrie",
    "postal_code":3042,
    "state":"Victoria",
    "country":"Australia",
    "country_code":"AU"
    }
  },
  {
    "type": "Feature",
    "geometry": {
       "type": "Point",
       "coordinates":  [ 145.0861591,-38.0069006 ]
    },
    "properties": {
    "name":"Paris Hot Bread",
    "site":"",
    "full_address":"572 Main St, Mordialloc VIC 3195",
    "street":"572 Main St",
    "city":"Mordialloc",
    "postal_code":3195,
    "state":"Victoria",
    "country":"Australia",
    "country_code":"AU"
    }
  },
  {
    "type": "Feature",
    "geometry": {
       "type": "Point",
       "coordinates":  [ 144.6813325,-37.8758138 ]
    },
    "properties": {
    "name":"Ba'get",
    "site":"http://www.baget.com.au/",
    "full_address":"Shop 246, Pacific Werribee, Cnr Derrimut Rd &, Heaths Rd, Werribee VIC 3030",
    "street":"Shop 246, Pacific Werribee, Cnr Derrimut Rd &, Heaths Rd",
    "city":"Werribee",
    "postal_code":3030,
    "state":"VIC",
    "country":"Australia",
    "country_code":"AU"
    }
  },
  {
    "type": "Feature",
    "geometry": {
       "type": "Point",
       "coordinates":  [ 145.0891784,-37.8999561 ]
    },
    "properties": {
    "name":"Lai Bakery & Cafe",
    "site":"",
    "full_address":"13 Portman St, Oakleigh VIC 3166",
    "street":"13 Portman St",
    "city":"Oakleigh",
    "postal_code":3166,
    "state":"Victoria",
    "country":"Australia",
    "country_code":"AU"
    }
  },
  {
    "type": "Feature",
    "geometry": {
       "type": "Point",
       "coordinates":  [ 145.2312943,-37.848122 ]
    },
    "properties": {
    "name":"Noos Noodles",
    "site":"https://noosnoodles.com.au/",
    "full_address":"1 The Mall, Wantirna VIC 3152",
    "street":"1 The Mall",
    "city":"Wantirna",
    "postal_code":3152,
    "state":"Victoria",
    "country":"Australia",
    "country_code":"AU"
    }
  },
  {
    "type": "Feature",
    "geometry": {
       "type": "Point",
       "coordinates":  [ 144.728611,-37.5811143 ]
    },
    "properties": {
    "name":"I Love Banh Mi",
    "site":"",
    "full_address":"99 Evans St, Sunbury VIC 3429",
    "street":"99 Evans St",
    "city":"Sunbury",
    "postal_code":3429,
    "state":"Victoria",
    "country":"Australia",
    "country_code":"AU"
    }
  },
  {
    "type": "Feature",
    "geometry": {
       "type": "Point",
       "coordinates":  [ 145.0979087,-37.8236481 ]
    },
    "properties": {
    "name":"Anne's Pantry Surrey Hills",
    "site":"http://www.annespantry.com.au/",
    "full_address":"2/139 Union Rd, Surrey Hills VIC 3127",
    "street":"2/139 Union Rd",
    "city":"Surrey Hills",
    "postal_code":3127,
    "state":"Victoria",
    "country":"Australia",
    "country_code":"AU"
    }
  },
  {
    "type": "Feature",
    "geometry": {
       "type": "Point",
       "coordinates":  [ 145.1830173,-37.8549632 ]
    },
    "properties": {
    "name":"Top Top Bakery",
    "site":"https://m.facebook.com/pages/Top-Top-Bakery/627827617414885",
    "full_address":"Unit 6/, Unit 6/495-511 Burwood Hwy, Vermont South VIC 3133",
    "street":"Unit 6/, Unit 6/495-511 Burwood Hwy",
    "city":"Vermont South",
    "postal_code":3133,
    "state":"VIC",
    "country":"Australia",
    "country_code":"AU"
    }
  },
  {
    "type": "Feature",
    "geometry": {
       "type": "Point",
       "coordinates":  [ 144.924375,-37.766724 ]
    },
    "properties": {
    "name":"Olivia Spring Cafe",
    "site":"https://www.facebook.com/OliviaSpringCafe/",
    "full_address":"637 Mt Alexander Rd, Moonee Ponds VIC 3039",
    "street":"637 Mt Alexander Rd",
    "city":"Moonee Ponds",
    "postal_code":3039,
    "state":"Victoria",
    "country":"Australia",
    "country_code":"AU"
    }
  },
  {
    "type": "Feature",
    "geometry": {
       "type": "Point",
       "coordinates":  [ 145.0137552,-37.6796325 ]
    },
    "properties": {
    "name":"Sunny Side Hot Bread Bakery",
    "site":"https://www.facebook.com/sunnysidehotbread",
    "full_address":"225 High St, Thomastown VIC 3074",
    "street":"225 High St",
    "city":"Thomastown",
    "postal_code":3074,
    "state":"Victoria",
    "country":"Australia",
    "country_code":"AU"
    }
  },
  {
    "type": "Feature",
    "geometry": {
       "type": "Point",
       "coordinates":  [ 145.007494,-37.819635 ]
    },
    "properties": {
    "name":"Number One Crispy Golden Pork",
    "site":"",
    "full_address":"476 Bridge Rd, Richmond VIC 3121",
    "street":"476 Bridge Rd",
    "city":"Richmond",
    "postal_code":3121,
    "state":"Victoria",
    "country":"Australia",
    "country_code":"AU"
    }
  },
  {
    "type": "Feature",
    "geometry": {
       "type": "Point",
       "coordinates":  [ 144.9925856,-37.8460285 ]
    },
    "properties": {
    "name":"Wasshoi Bar and Grill",
    "site":"",
    "full_address":"163 Commercial Rd, South Yarra VIC 3141",
    "street":"163 Commercial Rd",
    "city":"South Yarra",
    "postal_code":3141,
    "state":"Victoria",
    "country":"Australia",
    "country_code":"AU"
    }
  },
  {
    "type": "Feature",
    "geometry": {
       "type": "Point",
       "coordinates":  [ 145.1596339,-37.6737625 ]
    },
    "properties": {
    "name":"Hot Pies and Pork Roll Bakery",
    "site":"",
    "full_address":"75 Main Hurstbridge Rd, Diamond Creek VIC 3089",
    "street":"75 Main Hurstbridge Rd",
    "city":"Diamond Creek",
    "postal_code":3089,
    "state":"Victoria",
    "country":"Australia",
    "country_code":"AU"
    }
  },
  {
    "type": "Feature",
    "geometry": {
       "type": "Point",
       "coordinates":  [ 145.0651115,-38.238203 ]
    },
    "properties": {
    "name":"Le Feu Burguette Mornington GF",
    "site":"https://burguette.business.site/?utm_source=gmb&utm_medium=referral",
    "full_address":"2/209 Mornington-Tyabb Rd, Mornington VIC 3931",
    "street":"2/209 Mornington-Tyabb Rd",
    "city":"Mornington",
    "postal_code":3931,
    "state":"Victoria",
    "country":"Australia",
    "country_code":"AU"
    }
  },
  {
    "type": "Feature",
    "geometry": {
       "type": "Point",
       "coordinates":  [ 145.0037909,-37.7383528 ]
    },
    "properties": {
    "name":"La Panella Bakery",
    "site":"https://www.facebook.com/La-Panella-Bakery-111109138950836/",
    "full_address":"465 High St, Preston VIC 3072",
    "street":"465 High St",
    "city":"Preston",
    "postal_code":3072,
    "state":"Victoria",
    "country":"Australia",
    "country_code":"AU"
    }
  },
  {
    "type": "Feature",
    "geometry": {
       "type": "Point",
       "coordinates":  [ 144.9786519,-37.8060691 ]
    },
    "properties": {
    "name":"2T Cafe",
    "site":"",
    "full_address":"130 Gertrude St, Fitzroy VIC 3065",
    "street":"130 Gertrude St",
    "city":"Fitzroy",
    "postal_code":3065,
    "state":"Victoria",
    "country":"Australia",
    "country_code":"AU"
    }
  },
  {
    "type": "Feature",
    "geometry": {
       "type": "Point",
       "coordinates":  [ 144.7742778,-37.7510703 ]
    },
    "properties": {
    "name":"Brimbank Central Bakehouse",
    "site":"",
    "full_address":"T66/28/72 Neale Rd, Deer Park VIC 3023",
    "street":"T66/28/72 Neale Rd",
    "city":"Deer Park",
    "postal_code":3023,
    "state":"Victoria",
    "country":"Australia",
    "country_code":"AU"
    }
  },
  {
    "type": "Feature",
    "geometry": {
       "type": "Point",
       "coordinates":  [ 144.9625095,-37.8218156 ]
    },
    "properties": {
    "name":"Kenny's Bakery Cafe",
    "site":"http://www.kennysbakerycafe.com.au/",
    "full_address":"23/2 Southbank Blvd, Southbank VIC 3006",
    "street":"23/2 Southbank Blvd",
    "city":"Southbank",
    "postal_code":3006,
    "state":"Victoria",
    "country":"Australia",
    "country_code":"AU"
    }
  },
  {
    "type": "Feature",
    "geometry": {
       "type": "Point",
       "coordinates":  [ 145.0169778,-37.6737783 ]
    },
    "properties": {
    "name":"Jac's Traditional Fish & Chips",
    "site":"https://jacstraditionalfishchips.com.au/order-now",
    "full_address":"25 May Rd, Lalor VIC 3075",
    "street":"25 May Rd",
    "city":"Lalor",
    "postal_code":3075,
    "state":"Victoria",
    "country":"Australia",
    "country_code":"AU"
    }
  },
  {
    "type": "Feature",
    "geometry": {
       "type": "Point",
       "coordinates":  [ 144.9216992,-37.8254415 ]
    },
    "properties": {
    "name":"Black Jack cafe",
    "site":"",
    "full_address":"1 Phillip Ct, Port Melbourne VIC 3207",
    "street":"1 Phillip Ct",
    "city":"Port Melbourne",
    "postal_code":3207,
    "state":"Victoria",
    "country":"Australia",
    "country_code":"AU"
    }
  },
  {
    "type": "Feature",
    "geometry": {
       "type": "Point",
       "coordinates":  [ 145.3457305,-38.0315563 ]
    },
    "properties": {
    "name":"Lanterns Viet Kitchen",
    "site":"http://www.lanternsvk.com.au/",
    "full_address":"90 High St, Berwick VIC 3806",
    "street":"90 High St",
    "city":"Berwick",
    "postal_code":3806,
    "state":"Victoria",
    "country":"Australia",
    "country_code":"AU"
    }
  },
  {
    "type": "Feature",
    "geometry": {
       "type": "Point",
       "coordinates":  [ 144.9053936,-37.8020343 ]
    },
    "properties": {
    "name":"The Whitehall Cafe",
    "site":"",
    "full_address":"30 Whitehall St, Footscray VIC 3011",
    "street":"30 Whitehall St",
    "city":"Footscray",
    "postal_code":3011,
    "state":"Victoria",
    "country":"Australia",
    "country_code":"AU"
    }
  },
  {
    "type": "Feature",
    "geometry": {
       "type": "Point",
       "coordinates":  [ 144.956785,-37.8075798 ]
    },
    "properties": {
    "name":"Alex Canteen",
    "site":"http://www.qvm.com.au/",
    "full_address":"Queen St, Melbourne VIC 3000",
    "street":"Queen St",
    "city":"Melbourne",
    "postal_code":3000,
    "state":"Victoria",
    "country":"Australia",
    "country_code":"AU"
    }
  },
  {
    "type": "Feature",
    "geometry": {
       "type": "Point",
       "coordinates":  [ 144.8613508,-37.7497092 ]
    },
    "properties": {
    "name":"Milleara Bakery",
    "site":"",
    "full_address":"Unit 24/235 Milleara Rd, Keilor East VIC 3033",
    "street":"Unit 24/235 Milleara Rd",
    "city":"Keilor East",
    "postal_code":3033,
    "state":"Victoria",
    "country":"Australia",
    "country_code":"AU"
    }
  },
  {
    "type": "Feature",
    "geometry": {
       "type": "Point",
       "coordinates":  [ 144.8663858,-37.7322825 ]
    },
    "properties": {
    "name":"Lai Bakery and Cafe",
    "site":"https://lai-bakery-and-cafe.business.site/",
    "full_address":"30 Centreway, Keilor East VIC 3033",
    "street":"30 Centreway",
    "city":"Keilor East",
    "postal_code":3033,
    "state":"Victoria",
    "country":"Australia",
    "country_code":"AU"
    }
  },
  {
    "type": "Feature",
    "geometry": {
       "type": "Point",
       "coordinates":  [ 144.7291044,-37.5807165 ]
    },
    "properties": {
    "name":"Lai Bakery Sunbury",
    "site":"",
    "full_address":"101 Evans St, Sunbury VIC 3429",
    "street":"101 Evans St",
    "city":"Sunbury",
    "postal_code":3429,
    "state":"Victoria",
    "country":"Australia",
    "country_code":"AU"
    }
  },
  {
    "type": "Feature",
    "geometry": {
       "type": "Point",
       "coordinates":  [ 145.0014969,-37.7517826 ]
    },
    "properties": {
    "name":"Kampot Kitchen",
    "site":"http://www.kampotkitchen.com.au/",
    "full_address":"11 High St, Preston VIC 3072",
    "street":"11 High St",
    "city":"Preston",
    "postal_code":3072,
    "state":"Victoria",
    "country":"Australia",
    "country_code":"AU"
    }
  },
  {
    "type": "Feature",
    "geometry": {
       "type": "Point",
       "coordinates":  [ 144.9293202,-37.7941636 ]
    },
    "properties": {
    "name":"Bakehouse Bakery Patisserie",
    "site":"",
    "full_address":"506 Macaulay Rd, Kensington VIC 3031",
    "street":"506 Macaulay Rd",
    "city":"Kensington",
    "postal_code":3031,
    "state":"Victoria",
    "country":"Australia",
    "country_code":"AU"
    }
  },
  {
    "type": "Feature",
    "geometry": {
       "type": "Point",
       "coordinates":  [ 144.978574,-37.796438 ]
    },
    "properties": {
    "name":"Radio Bar & Cafe",
    "site":"",
    "full_address":"357 Brunswick St, Fitzroy VIC 3065",
    "street":"357 Brunswick St",
    "city":"Fitzroy",
    "postal_code":3065,
    "state":"Victoria",
    "country":"Australia",
    "country_code":"AU"
    }
  },
  {
    "type": "Feature",
    "geometry": {
       "type": "Point",
       "coordinates":  [ 144.9686,-37.8098 ]
    },
    "properties": {
    "name":"Pho Nung 123",
    "site":"",
    "full_address":"123 Lonsdale St, Melbourne VIC 3000",
    "street":"123 Lonsdale St",
    "city":"Melbourne",
    "postal_code":3000,
    "state":"Victoria",
    "country":"Australia",
    "country_code":"AU"
    }
  },
  {
    "type": "Feature",
    "geometry": {
       "type": "Point",
       "coordinates":  [ 144.8642,-37.7822 ]
    },
    "properties": {
    "name":"Braybrook Bakehouse",
    "site":"",
    "full_address":"5/227 Ballarat Road, Braybrook",
    "street":"5/227 Ballarat Road",
    "city":"Braybrook",
    "postal_code":3019,
    "state":"Victoria",
    "country":"Australia",
    "country_code":"AU"
    }
  },
  {
    "type": "Feature",
    "geometry": {
       "type": "Point",
       "coordinates":  [ 144.9625,-37.801 ]
    },
    "properties": {
    "name":"Lincoln Bakery Cafï¿½",
    "site":"",
    "full_address":"154 Bouverie St, Carlton",
    "street":"154 Bouverie St",
    "city":"Carlton",
    "postal_code":3053,
    "state":"Victoria",
    "country":"Australia",
    "country_code":"AU"
    }
  },
  {
    "type": "Feature",
    "geometry": {
       "type": "Point",
       "coordinates":  [ 145.0005,-37.7688 ]
    },
    "properties": {
    "name":"Best Baked Daily",
    "site":"",
    "full_address":"17 Robbs Parade, Northcote VIC 3070",
    "street":"17 Robbs Parade",
    "city":"Northcote",
    "postal_code":3070,
    "state":"Victoria",
    "country":"Australia",
    "country_code":"AU"
    }
  },
  {
    "type": "Feature",
    "geometry": {
       "type": "Point",
       "coordinates":  [ 144.8331,-37.7869 ]
    },
    "properties": {
    "name":"Pami Rolls",
    "site":"",
    "full_address":"62A Station Place, Sunshine VIC 3020",
    "street":"62A Station Place",
    "city":"Sunshine",
    "postal_code":3020,
    "state":"Victoria",
    "country":"Australia",
    "country_code":"AU"
    }
  },
  {
    "type": "Feature",
    "geometry": {
       "type": "Point",
       "coordinates":  [ 145.1922,-37.817 ]
    },
    "properties": {
    "name":"Serafino's Coffee Lounge",
    "site":"",
    "full_address":"1/524-526 Whitehorse Road, Mitcham VIC 3132",
    "street":"1/524-526 Whitehorse Road",
    "city":"Mitcham",
    "postal_code":3132,
    "state":"Victoria",
    "country":"Australia",
    "country_code":"AU"
    }
  },
  {
    "type": "Feature",
    "geometry": {
       "type": "Point",
       "coordinates":  [ 145.221,-37.8154 ]
    },
    "properties": {
    "name":"Saigon Bakery",
    "site":"",
    "full_address":"Ringwood Square, Maroondah Hwy, Ringwood",
    "street":"Ringwood Square, Maroondah Hwy",
    "city":"Ringwood",
    "postal_code":3134,
    "state":"Victoria",
    "country":"Australia",
    "country_code":"AU"
    }
  },
  {
    "type": "Feature",
    "geometry": {
       "type": "Point",
       "coordinates":  [ 145.2704,-37.8112 ]
    },
    "properties": {
    "name":"Goldelucks Bakeshop",
    "site":"",
    "full_address":"The Malll, Bayswater Road, Croydon South",
    "street":"The Malll, Bayswater Road",
    "city":"Bayswater",
    "postal_code":3136,
    "state":"Victoria",
    "country":"Australia",
    "country_code":"AU"
    }
  },
  {
    "type": "Feature",
    "geometry": {
       "type": "Point",
       "coordinates":  [ 145.1555,-37.9311 ]
    },
    "properties": {
    "name":"Mulgrave Hot Bread",
    "site":"",
    "full_address":"Corner Springvale Road and Princes Highway, Mulgrave",
    "street":"Corner Springvale Road and Princes Highway",
    "city":"Mulgrave",
    "postal_code":null,
    "state":"Victoria",
    "country":"Australia",
    "country_code":"AU"
    }
  },
  {
    "type": "Feature",
    "geometry": {
       "type": "Point",
       "coordinates":  [ 145.0057,-37.7159 ]
    },
    "properties": {
    "name":"Luke's Bakery",
    "site":"",
    "full_address":"14 Edwardes St, Reservoir VIC 3073",
    "street":"14 Edwardes St",
    "city":"Reservoir",
    "postal_code":null,
    "state":"Victoria",
    "country":"Australia",
    "country_code":"AU"
    }
  },
  {
    "type": "Feature",
    "geometry": {
       "type": "Point",
       "coordinates":  [ 144.9241,-37.7669 ]
    },
    "properties": {
    "name":"Luke's Bakery",
    "site":"",
    "full_address":"11 Puckle St, Moonee Ponds VIC 3039",
    "street":"11 Puckle St",
    "city":"Moonee Ponds",
    "postal_code":null,
    "state":"Victoria",
    "country":"Australia",
    "country_code":"AU"
    }
  },
  {
    "type": "Feature",
    "geometry": {
       "type": "Point",
       "coordinates":  [ 144.8325,-37.7834 ]
    },
    "properties": {
    "name":"Selina Hot Bread ",
    "site":"",
    "full_address":"5/310 Hampshire Rd, Sunshine VIC 3020",
    "street":"5/310 Hampshire Rd",
    "city":"Sunshine",
    "postal_code":null,
    "state":"Victoria",
    "country":"Australia",
    "country_code":"AU"
    }
  },
  {
    "type": "Feature",
    "geometry": {
       "type": "Point",
       "coordinates":  [ 144.902,-37.8006 ]
    },
    "properties": {
    "name":"Nhu Ngoc Bakery ",
    "site":"",
    "full_address":"Shop 223 footscray maket, 18 Irving St, Footscray VIC 3011",
    "street":"Shop 223 footscray maket, 18 Irving St",
    "city":"Footscray",
    "postal_code":null,
    "state":"Victoria",
    "country":"Australia",
    "country_code":"AU"
    }
  },
  {
    "type": "Feature",
    "geometry": {
       "type": "Point",
       "coordinates":  [ 145.1514,-37.9507 ]
    },
    "properties": {
    "name":"Minh Duc Bakery Springvale ",
    "site":"",
    "full_address":"33E Buckingham Ave, Springvale VIC 3171",
    "street":"33E Buckingham Ave",
    "city":"Springvale",
    "postal_code":null,
    "state":"Victoria",
    "country":"Australia",
    "country_code":"AU"
    }
  },
  {
    "type": "Feature",
    "geometry": {
       "type": "Point",
       "coordinates":  [ 145.1505,-37.9506 ]
    },
    "properties": {
    "name":"Ben Thanh Hot Bread & Bakery ",
    "site":"",
    "full_address":"32a/46 Buckingham Ave, Springvale VIC 3171",
    "street":"32a/46 Buckingham Ave",
    "city":"Springvale",
    "postal_code":null,
    "state":"Victoria",
    "country":"Australia",
    "country_code":"AU"
    }
  },
  {
    "type": "Feature",
    "geometry": {
       "type": "Point",
       "coordinates":  [ 145.1504,-37.9508 ]
    },
    "properties": {
    "name":"Anloi Deli",
    "site":"",
    "full_address":"58 Buckingham Ave, Springvale VIC 3171",
    "street":"58 Buckingham Ave",
    "city":"Springvale",
    "postal_code":null,
    "state":"Victoria",
    "country":"Australia",
    "country_code":"AU"
    }
  },
  {
    "type": "Feature",
    "geometry": {
       "type": "Point",
       "coordinates":  [ 145.1509,-37.9505 ]
    },
    "properties": {
    "name":"Golden Age Hot Bread & Takeaway ",
    "site":"",
    "full_address":"5b/44 Buckingham Ave, Springvale VIC 3171",
    "street":"5b/44 Buckingham Ave",
    "city":"Springvale",
    "postal_code":null,
    "state":"Victoria",
    "country":"Australia",
    "country_code":"AU"
    }
  },
  {
    "type": "Feature",
    "geometry": {
       "type": "Point",
       "coordinates":  [ 145.1507,-37.9493 ]
    },
    "properties": {
    "name":"Huy Anh Bakery ",
    "site":"",
    "full_address":"1/17 Balmoral Ave, Springvale VIC 3171",
    "street":"1/17 Balmoral Ave",
    "city":"Springvale",
    "postal_code":null,
    "state":"Victoria",
    "country":"Australia",
    "country_code":"AU"
    }
  },
  {
    "type": "Feature",
    "geometry": {
       "type": "Point",
       "coordinates":  [ 145.1526,-37.9497 ]
    },
    "properties": {
    "name":"Springvale Cake & Bread ",
    "site":"",
    "full_address":"222 Springvale Rd, Springvale VIC 3171",
    "street":"222 Springvale Rd",
    "city":"Springvale",
    "postal_code":null,
    "state":"Victoria",
    "country":"Australia",
    "country_code":"AU"
    }
  },
  {
    "type": "Feature",
    "geometry": {
       "type": "Point",
       "coordinates":  [ 145.1517,-37.9538 ]
    },
    "properties": {
    "name":"T.T. Bake House ",
    "site":"",
    "full_address":"308 Springvale Rd, Springvale VIC 3171",
    "street":"308 Springvale Rd",
    "city":"Springvale",
    "postal_code":null,
    "state":"Victoria",
    "country":"Australia",
    "country_code":"AU"
    }
  },
  {
    "type": "Feature",
    "geometry": {
       "type": "Point",
       "coordinates":  [ 145.1497,-37.9715 ]
    },
    "properties": {
    "name":"Spring Hot Bread ",
    "site":"",
    "full_address":"166 Athol Rd, Springvale South VIC 3172",
    "street":"166 Athol Rd",
    "city":"Springvale South",
    "postal_code":null,
    "state":"Victoria",
    "country":"Australia",
    "country_code":"AU"
    }
  },
  {
    "type": "Feature",
    "geometry": {
       "type": "Point",
       "coordinates":  [ 145.1225,-37.8192 ]
    },
    "properties": {
    "name":"Mr Kitchen ",
    "site":"",
    "full_address":"1 Main St, Box Hill VIC 3128",
    "street":"1 Main St",
    "city":"Box Hill",
    "postal_code":null,
    "state":"Victoria",
    "country":"Australia",
    "country_code":"AU"
    }
  },
  {
    "type": "Feature",
    "geometry": {
       "type": "Point",
       "coordinates":  [ 145.1339,-37.8404 ]
    },
    "properties": {
    "name":"Anneï¿½s Pantry Box Hill South ",
    "site":"",
    "full_address":"189 Middleborough Rd, Box Hill South VIC 3128",
    "street":"189 Middleborough Rd",
    "city":"Box Hill South",
    "postal_code":null,
    "state":"Victoria",
    "country":"Australia",
    "country_code":"AU"
    }
  },
  {
    "type": "Feature",
    "geometry": {
       "type": "Point",
       "coordinates":  [ 144.6594,-37.9025 ]
    },
    "properties": {
    "name":"Hot Bread Kitchen ",
    "site":"",
    "full_address":"129 Watton St, Werribee VIC 3030",
    "street":"129 Watton St",
    "city":"Werribee",
    "postal_code":null,
    "state":"Victoria",
    "country":"Australia",
    "country_code":"AU"
    }
  },
  {
    "type": "Feature",
    "geometry": {
       "type": "Point",
       "coordinates":  [ 144.9293,-37.7871 ]
    },
    "properties": {
    "name":"Pin Oak Bakehouse ",
    "site":"",
    "full_address":"38 Pin Oak Cres, Flemington VIC 3031",
    "street":"38 Pin Oak Cres",
    "city":"Flemington",
    "postal_code":null,
    "state":"Victoria",
    "country":"Australia",
    "country_code":"AU"
    }
  },
  {
    "type": "Feature",
    "geometry": {
       "type": "Point",
       "coordinates":  [ 144.8006,-37.7426 ]
    },
    "properties": {
    "name":"Thy's Sandwiches ",
    "site":"",
    "full_address":"1a/47-49 Alfrieda St, St Albans VIC 3021",
    "street":"1a/47-49 Alfrieda St",
    "city":"St Albans",
    "postal_code":null,
    "state":"Victoria",
    "country":"Australia",
    "country_code":"AU"
    }
  },
  {
    "type": "Feature",
    "geometry": {
       "type": "Point",
       "coordinates":  [ 145.0155,-37.7467 ]
    },
    "properties": {
    "name":"baNHmi on bell ",
    "site":"",
    "full_address":"143 Bell St, Preston VIC 3072",
    "street":"143 Bell St",
    "city":"Preston",
    "postal_code":null,
    "state":"Victoria",
    "country":"Australia",
    "country_code":"AU"
    }
  },
  {
    "type": "Feature",
    "geometry": {
       "type": "Point",
       "coordinates":  [ 145.005,-37.7468 ]
    },
    "properties": {
    "name":"C J Roll ",
    "site":"",
    "full_address":"151 Plenty Rd, Preston VIC 3072",
    "street":"151 Plenty Rd",
    "city":"Preston",
    "postal_code":null,
    "state":"Victoria",
    "country":"Australia",
    "country_code":"AU"
    }
  },
  {
    "type": "Feature",
    "geometry": {
       "type": "Point",
       "coordinates":  [ 145.0035,-37.7401 ]
    },
    "properties": {
    "name":"Tinaï¿½s Hot Bread ",
    "site":"",
    "full_address":"397 High St, Preston VIC 3072",
    "street":"397 High St",
    "city":"Preston",
    "postal_code":null,
    "state":"Victoria",
    "country":"Australia",
    "country_code":"AU"
    }
  },
  {
    "type": "Feature",
    "geometry": {
       "type": "Point",
       "coordinates":  [ 145.0838,-37.8034 ]
    },
    "properties": {
    "name":"Belmore Vietnamese Food ",
    "site":"",
    "full_address":"251A Belmore Rd, Balwyn North VIC 3104",
    "street":"251A Belmore Rd",
    "city":"Balwyn North",
    "postal_code":null,
    "state":"Victoria",
    "country":"Australia",
    "country_code":"AU"
    }
  },
  {
    "type": "Feature",
    "geometry": {
       "type": "Point",
       "coordinates":  [ 145.0782,-37.8339 ]
    },
    "properties": {
    "name":"Bao & Bun (Angela's Kitchen) ",
    "site":"",
    "full_address":"770 Riversdale Rd, Camberwell VIC 3124",
    "street":"770 Riversdale Rd",
    "city":"Camberwell",
    "postal_code":null,
    "state":"Victoria",
    "country":"Australia",
    "country_code":"AU"
    }
  },
  {
    "type": "Feature",
    "geometry": {
       "type": "Point",
       "coordinates":  [ 145.1244,-38.1439 ]
    },
    "properties": {
    "name":"BABA on Wells ",
    "site":"",
    "full_address":"5A Wells St, Frankston VIC 3199",
    "street":"5A Wells St",
    "city":"Frankston",
    "postal_code":null,
    "state":"Victoria",
    "country":"Australia",
    "country_code":"AU"
    }
  },
  {
    "type": "Feature",
    "geometry": {
       "type": "Point",
       "coordinates":  [ 145.1251,-38.1404 ]
    },
    "properties": {
    "name":"That bakery ",
    "site":"",
    "full_address":"28 Beach St, Frankston VIC 3199",
    "street":"28 Beach St",
    "city":"Frankston",
    "postal_code":null,
    "state":"Victoria",
    "country":"Australia",
    "country_code":"AU"
    }
  },
  {
    "type": "Feature",
    "geometry": {
       "type": "Point",
       "coordinates":  [ 145.162,-38.106 ]
    },
    "properties": {
    "name":"Le Cafe - Pork roll, Pho ",
    "site":"",
    "full_address":"7A Daniel Dr, Carrum Downs VIC 3201",
    "street":"7A Daniel Dr",
    "city":"Carrum Downs",
    "postal_code":null,
    "state":"Victoria",
    "country":"Australia",
    "country_code":"AU"
    }
  },
  {
    "type": "Feature",
    "geometry": {
       "type": "Point",
       "coordinates":  [ 145.21,-37.9888 ]
    },
    "properties": {
    "name":"BMNC - Banh Mi & Noodle Co ",
    "site":"",
    "full_address":"42 Halpin Way, Dandenong VIC 3175",
    "street":"42 Halpin Way",
    "city":"Dandenong",
    "postal_code":null,
    "state":"Victoria",
    "country":"Australia",
    "country_code":"AU"
    }
  },
  {
    "type": "Feature",
    "geometry": {
       "type": "Point",
       "coordinates":  [ 145.0248,-37.6496 ]
    },
    "properties": {
    "name":"Epping Hot Bread Kitchen ",
    "site":"",
    "full_address":"739 High St, Epping VIC 3076",
    "street":"739 High St",
    "city":"Epping",
    "postal_code":null,
    "state":"Victoria",
    "country":"Australia",
    "country_code":"AU"
    }
  },
  {
    "type": "Feature",
    "geometry": {
       "type": "Point",
       "coordinates":  [ 145.0183,-37.6543 ]
    },
    "properties": {
    "name":"Kathy Tran Hot Bread ",
    "site":"",
    "full_address":"571-583 Cooper St, Epping VIC 3076",
    "street":"571-583 Cooper St",
    "city":"Epping",
    "postal_code":null,
    "state":"Victoria",
    "country":"Australia",
    "country_code":"AU"
    }
  },
  {
    "type": "Feature",
    "geometry": {
       "type": "Point",
       "coordinates":  [ 145.0177,-37.6542 ]
    },
    "properties": {
    "name":"Yves Bakery",
    "site":"",
    "full_address":"571-583 Cooper St, Epping VIC 3076",
    "street":"571-583 Cooper St",
    "city":"Epping",
    "postal_code":null,
    "state":"Victoria",
    "country":"Australia",
    "country_code":"AU"
    }
  },
  {
    "type": "Feature",
    "geometry": {
       "type": "Point",
       "coordinates":  [ 144.9408,-37.5977 ]
    },
    "properties": {
    "name":"Quang Hot Bread Kitchen ",
    "site":"",
    "full_address":"Craigieburn Plaza Shopping Ctr, Shop/5/10 Craigieburn Rd, Craigieburn VIC 3064",
    "street":"Craigieburn Plaza Shopping Ctr, Shop/5/10 Craigieburn Rd",
    "city":"Craigieburn",
    "postal_code":null,
    "state":"Victoria",
    "country":"Australia",
    "country_code":"AU"
    }
  },
  {
    "type": "Feature",
    "geometry": {
       "type": "Point",
       "coordinates":  [ 144.9198,-37.5749 ]
    },
    "properties": {
    "name":"The Flying Loaf Bakery ",
    "site":"",
    "full_address":"300/332 Grand Blvd, Craigieburn VIC 3064",
    "street":"300/332 Grand Blvd",
    "city":"Craigieburn",
    "postal_code":null,
    "state":"Victoria",
    "country":"Australia",
    "country_code":"AU"
    }
  },
  {
    "type": "Feature",
    "geometry": {
       "type": "Point",
       "coordinates":  [ 144.6741,-37.8396 ]
    },
    "properties": {
    "name":"Tarneit Gardens Bakery ",
    "site":"",
    "full_address":"747 Tarneit Rd, Tarneit VIC 3029",
    "street":"747 Tarneit Rd",
    "city":"Tarneit",
    "postal_code":null,
    "state":"Victoria",
    "country":"Australia",
    "country_code":"AU"
    }
  },
  {
    "type": "Feature",
    "geometry": {
       "type": "Point",
       "coordinates":  [ 144.7474,-37.8259 ]
    },
    "properties": {
    "name":"La Roll TRUGANINA ",
    "site":"",
    "full_address":"1/5 Palmers Rd Service Rd, Truganina VIC 3029",
    "street":"1/5 Palmers Rd Service Rd",
    "city":"Truganina",
    "postal_code":null,
    "state":"Victoria",
    "country":"Australia",
    "country_code":"AU"
    }
  },
  {
    "type": "Feature",
    "geometry": {
       "type": "Point",
       "coordinates":  [ 144.7283,-37.8698 ]
    },
    "properties": {
    "name":"CAM CAFE & ROLL ",
    "site":"",
    "full_address":"399 Old Geelong Rd, Hoppers Crossing VIC 3029",
    "street":"399 Old Geelong Rd",
    "city":"Hoppers Crossing",
    "postal_code":null,
    "state":"Victoria",
    "country":"Australia",
    "country_code":"AU"
    }
  },
  {
    "type": "Feature",
    "geometry": {
       "type": "Point",
       "coordinates":  [ 144.8471,-37.8281 ]
    },
    "properties": {
    "name":"21st Century Bakery ",
    "site":"",
    "full_address":"124-134 Millers Rd, Altona North VIC 3025",
    "street":"124-134 Millers Rd",
    "city":"Altona North",
    "postal_code":null,
    "state":"Victoria",
    "country":"Australia",
    "country_code":"AU"
    }
  },
  {
    "type": "Feature",
    "geometry": {
       "type": "Point",
       "coordinates":  [ 145.1041,-37.7037 ]
    },
    "properties": {
    "name":"EJ's Patisserie ",
    "site":"",
    "full_address":"52 Main St, Greensborough VIC 3088",
    "street":"52 Main St",
    "city":"Greensborough",
    "postal_code":null,
    "state":"Victoria",
    "country":"Australia",
    "country_code":"AU"
    }
  },
  {
    "type": "Feature",
    "geometry": {
       "type": "Point",
       "coordinates":  [ 145.0259,-37.8218 ]
    },
    "properties": {
    "name":"Hawthorn Hot Bread",
    "site":"",
    "full_address":"112 Burwood Rd, Hawthorn VIC 3122",
    "street":"112 Burwood Rd",
    "city":"Hawthorn",
    "postal_code":null,
    "state":"Victoria",
    "country":"Australia",
    "country_code":"AU"
    }
  },
  {
    "type": "Feature",
    "geometry": {
       "type": "Point",
       "coordinates":  [ 145.0574,-37.888 ]
    },
    "properties": {
    "name":"Koornang Hot Bread ",
    "site":"",
    "full_address":"110 Koornang Rd, Carnegie VIC 3163",
    "street":"110 Koornang Rd",
    "city":"Carnegie",
    "postal_code":null,
    "state":"Victoria",
    "country":"Australia",
    "country_code":"AU"
    }
  },
  {
    "type": "Feature",
    "geometry": {
       "type": "Point",
       "coordinates":  [ 144.9607,-37.7757 ]
    },
    "properties": {
    "name":"Barkly Hot Bread ",
    "site":"",
    "full_address":"84/86 Sydney Rd, Brunswick VIC 3056",
    "street":"84/86 Sydney Rd",
    "city":"Brunswick",
    "postal_code":null,
    "state":"Victoria",
    "country":"Australia",
    "country_code":"AU"
    }
  },
  {
    "type": "Feature",
    "geometry": {
       "type": "Point",
       "coordinates":  [ 145.0428,-37.7492 ]
    },
    "properties": {
    "name":"The Mall Hot Bread Kitchen ",
    "site":"",
    "full_address":"22 The Mall, Heidelberg West VIC 3081",
    "street":"22 The Mall",
    "city":"Heidelberg West",
    "postal_code":null,
    "state":"Victoria",
    "country":"Australia",
    "country_code":"AU"
    }
  },
  {
    "type": "Feature",
    "geometry": {
       "type": "Point",
       "coordinates":  [ 145.1525,-37.8119 ]
    },
    "properties": {
    "name":"Hong Hot Bread",
    "site":"",
    "full_address":"Shop 48/66-104 Springfield Rd, Blackburn VIC 3130",
    "street":"Shop 48/66-104 Springfield Rd",
    "city":"Blackburn",
    "postal_code":null,
    "state":"Victoria",
    "country":"Australia",
    "country_code":"AU"
    }
  },
  {
    "type": "Feature",
    "geometry": {
       "type": "Point",
       "coordinates":  [ 145.1767,-37.8204 ]
    },
    "properties": {
    "name":"Ten Sun Hot Bread & Cake Kitchen ",
    "site":"",
    "full_address":"30 Station St, Nunawading VIC 3131",
    "street":"30 Station St",
    "city":"Nunawading",
    "postal_code":null,
    "state":"Victoria",
    "country":"Australia",
    "country_code":"AU"
    }
  },
  {
    "type": "Feature",
    "geometry": {
       "type": "Point",
       "coordinates":  [ 145.1896,-37.8044 ]
    },
    "properties": {
    "name":"New Mitcham Bakery ",
    "site":"",
    "full_address":"236 Mitcham Rd, Mitcham VIC 3132",
    "street":"236 Mitcham Rd",
    "city":"Mitcham",
    "postal_code":null,
    "state":"Victoria",
    "country":"Australia",
    "country_code":"AU"
    }
  },
  {
    "type": "Feature",
    "geometry": {
       "type": "Point",
       "coordinates":  [ 145.0285,-37.862 ]
    },
    "properties": {
    "name":"M&M Hot Bread ",
    "site":"",
    "full_address":"96 Glenferrie Rd, Malvern VIC 3144",
    "street":"96 Glenferrie Rd",
    "city":"Malvern",
    "postal_code":null,
    "state":"Victoria",
    "country":"Australia",
    "country_code":"AU"
    }
  },
  {
    "type": "Feature",
    "geometry": {
       "type": "Point",
       "coordinates":  [ 145.1852,-38.1021 ]
    },
    "properties": {
    "name":"That bakery ",
    "site":"",
    "full_address":"Shop 46/100 Hall Rd, Carrum Downs VIC 3201",
    "street":"Shop 46/100 Hall Rd",
    "city":"Carrum Downs",
    "postal_code":null,
    "state":"Victoria",
    "country":"Australia",
    "country_code":"AU"
    }
  },
  {
    "type": "Feature",
    "geometry": {
       "type": "Point",
       "coordinates":  [ 145.3199,-38.1188 ]
    },
    "properties": {
    "name":"That  Bakery",
    "site":"",
    "full_address":"280 Berwick-Cranbourne Rd, Clyde VIC 3978",
    "street":"280 Berwick-Cranbourne Rd",
    "city":"Clyde",
    "postal_code":null,
    "state":"Victoria",
    "country":"Australia",
    "country_code":"AU"
    }
  },
  {
    "type": "Feature",
    "geometry": {
       "type": "Point",
       "coordinates":  [ 145.06,-37.666 ]
    },
    "properties": {
    "name":"Kathy Tran Hot Bread Kitchen ",
    "site":"",
    "full_address":"Unit 43/314-360 Childs Rd, Mill Park VIC 3082",
    "street":"Unit 43/314-360 Childs Rd",
    "city":"Mill Park",
    "postal_code":null,
    "state":"Victoria",
    "country":"Australia",
    "country_code":"AU"
    }
  },
  {
    "type": "Feature",
    "geometry": {
       "type": "Point",
       "coordinates":  [ 145.128,-37.877 ]
    },
    "properties": {
    "name":"Katrina's Banh Mi & Yumcha ",
    "site":"",
    "full_address":"65 Hamilton Pl, Mount Waverley VIC 3149",
    "street":"65 Hamilton Pl",
    "city":"Mount Waverley",
    "postal_code":null,
    "state":"Victoria",
    "country":"Australia",
    "country_code":"AU"
    }
  },
  {
    "type": "Feature",
    "geometry": {
       "type": "Point",
       "coordinates":  [ 145.1483,-37.874 ]
    },
    "properties": {
    "name":"Syndal Hot Bread ",
    "site":"",
    "full_address":"242 Blackburn Rd, Glen Waverley VIC 3150",
    "street":"242 Blackburn Rd",
    "city":"Glen Waverley",
    "postal_code":null,
    "state":"Victoria",
    "country":"Australia",
    "country_code":"AU"
    }
  },
  {
    "type": "Feature",
    "geometry": {
       "type": "Point",
       "coordinates":  [ 145.1442,-37.8911 ]
    },
    "properties": {
    "name":"New Pinewood Bakehouse ",
    "site":"",
    "full_address":"415 Blackburn Rd, Mount Waverley VIC 3149",
    "street":"415 Blackburn Rd",
    "city":"Mount Waverley",
    "postal_code":null,
    "state":"Victoria",
    "country":"Australia",
    "country_code":"AU"
    }
  },
  {
    "type": "Feature",
    "geometry": {
       "type": "Point",
       "coordinates":  [ 145.1501,-37.8613 ]
    },
    "properties": {
    "name":"Tally-Ho Bakery ",
    "site":"",
    "full_address":"51 Blackburn Rd, Mount Waverley VIC 3149",
    "street":"51 Blackburn Rd",
    "city":"Mount Waverley",
    "postal_code":null,
    "state":"Victoria",
    "country":"Australia",
    "country_code":"AU"
    }
  },
  {
    "type": "Feature",
    "geometry": {
       "type": "Point",
       "coordinates":  [ 145.143,-37.8906 ]
    },
    "properties": {
    "name":"Lee Lee Pantry ",
    "site":"",
    "full_address":"11 Centreway, Mount Waverley VIC 3149",
    "street":"11 Centreway",
    "city":"Mount Waverley",
    "postal_code":null,
    "state":"Victoria",
    "country":"Australia",
    "country_code":"AU"
    }
  },
  {
    "type": "Feature",
    "geometry": {
       "type": "Point",
       "coordinates":  [ 145.0911,-37.8997 ]
    },
    "properties": {
    "name":"Imperial Bakery ",
    "site":"",
    "full_address":"Unit 24/28 Chester St, Oakleigh VIC 3166",
    "street":"Unit 24/28 Chester St",
    "city":"Oakleigh",
    "postal_code":null,
    "state":"Victoria",
    "country":"Australia",
    "country_code":"AU"
    }
  },
  {
    "type": "Feature",
    "geometry": {
       "type": "Point",
       "coordinates":  [ 145.0887,-37.8995 ]
    },
    "properties": {
    "name":"Saigon Cuisine Restaurant ",
    "site":"",
    "full_address":"28 Station St, Oakleigh VIC 3166",
    "street":"28 Station St",
    "city":"Oakleigh",
    "postal_code":null,
    "state":"Victoria",
    "country":"Australia",
    "country_code":"AU"
    }
  },
  {
    "type": "Feature",
    "geometry": {
       "type": "Point",
       "coordinates":  [ 145.0836,-37.8854 ]
    },
    "properties": {
    "name":"Phuoc Thanh Bakery Chadstone ",
    "site":"",
    "full_address":"1342 Dandenong Rd Lower Ground Food Court, Chadstone VIC 3148",
    "street":"1342 Dandenong Rd Lower Ground Food Court",
    "city":"Chadstone",
    "postal_code":null,
    "state":"Victoria",
    "country":"Australia",
    "country_code":"AU"
    }
  },
  {
    "type": "Feature",
    "geometry": {
       "type": "Point",
       "coordinates":  [ 145.0826,-37.8865 ]
    },
    "properties": {
    "name":"Roll'd Chadstone Kiosk",
    "site":"",
    "full_address":"Shop K009 Chadstone Shopping Centre, 1341 Dandenong Rd, Chadstone VIC 3148",
    "street":"Shop K009 Chadstone Shopping Centre, 1341 Dandenong Rd",
    "city":"Chadstone",
    "postal_code":null,
    "state":"Victoria",
    "country":"Australia",
    "country_code":"AU"
    }
  },
  {
    "type": "Feature",
    "geometry": {
       "type": "Point",
       "coordinates":  [ 145.0573,-37.8866 ]
    },
    "properties": {
    "name":"Blue Ginger Viet Kitchen And Bar ",
    "site":"",
    "full_address":"65 Koornang Rd, Carnegie VIC 3163",
    "street":"65 Koornang Rd",
    "city":"Carnegie",
    "postal_code":null,
    "state":"Victoria",
    "country":"Australia",
    "country_code":"AU"
    }
  },
  {
    "type": "Feature",
    "geometry": {
       "type": "Point",
       "coordinates":  [ 145.0425,-37.8761 ]
    },
    "properties": {
    "name":"Caulfield Plaza Bakery ",
    "site":"",
    "full_address":"860/874 Princes Hwy Service Rd, Caulfield East VIC 3145",
    "street":"860/874 Princes Hwy Service Rd",
    "city":"Caulfield East",
    "postal_code":null,
    "state":"Victoria",
    "country":"Australia",
    "country_code":"AU"
    }
  },